,Entity ID,Entity Name,Plant ID,Plant Name,Plant State,County,Balancing Authority Code,Sector,Generator ID,Nameplate Capacity (MW),Net Summer Capacity (MW),Net Winter Capacity (MW),Technology,Status,Latitude,Longitude
8715,60246,"Sunray Energy 2, LLC",10437,Sunray 2,CA,San Bernardino,CISO,IPP Non-CHP,SUN2,20,20,18.5,Solar Photovoltaic,(OP) Operating,34.863356,-116.8276
8716,60247,Sunray Energy 3 LLC,10438,Sunray 3,CA,San Bernardino,CISO,IPP Non-CHP,SUN3,13.8,13.8,13.8,Solar Photovoltaic,(OP) Operating,34.863356,-116.8276
8717,61950,Terra-Gen Operating Co-Solar,10444,"Lockhart Solar PV, LLC",CA,San Bernardino,CISO,IPP Non-CHP,LOC1,100.4,85,85,Solar Photovoltaic,(OP) Operating,35.0308,-117.3563
9194,16625,San Diego State University,50061,San Diego State University,CA,San Diego,CISO,Commercial CHP,GEN5,0.1,0.1,0.1,Solar Photovoltaic,(OP) Operating,32.778225,-117.0701
9195,16625,San Diego State University,50061,San Diego State University,CA,San Diego,CISO,Commercial CHP,GEN6,0.3,0.3,0.2,Solar Photovoltaic,(OP) Operating,32.778225,-117.0701
9196,16625,San Diego State University,50061,San Diego State University,CA,San Diego,CISO,Commercial CHP,GEN7,0.3,0.3,0.2,Solar Photovoltaic,(OP) Operating,32.778225,-117.0701
9197,16625,San Diego State University,50061,San Diego State University,CA,San Diego,CISO,Commercial CHP,GEN8,0.1,0.1,0.1,Solar Photovoltaic,(OP) Operating,32.778225,-117.0701
9199,22142,University of California Santa Cruz,50064,University of California Santa Cruz,CA,Santa Cruz,CISO,Commercial CHP,004,0.2,0.2,0.1,Solar Photovoltaic,(OP) Operating,36.9997,-122.0622
9201,22142,University of California Santa Cruz,50064,University of California Santa Cruz,CA,Santa Cruz,CISO,Commercial CHP,246,1.8,1.8,1.8,Solar Photovoltaic,(OP) Operating,36.9997,-122.0622
14180,55961,CalRenew-1 LLC,56768,CalRenew-1,CA,Fresno,CISO,IPP Non-CHP,CR1,5,5,5,Solar Photovoltaic,(OP) Operating,36.7575,-120.3658
14233,56028,MMA Fresno Power LP,56813,CSU Fresno Solar Project,CA,Fresno,CISO,IPP Non-CHP,1,0.5,0.5,0.5,Solar Photovoltaic,(OP) Operating,36.809841,-119.7417
14234,56028,MMA Fresno Power LP,56813,CSU Fresno Solar Project,CA,Fresno,CISO,IPP Non-CHP,2,0.5,0.5,0.5,Solar Photovoltaic,(OP) Operating,36.809841,-119.7417
14235,56027,MMA LA Power LP,56814,ELACC Photovoltaic Power Facility,CA,Los Angeles,CISO,IPP Non-CHP,PV1,0.5,0.4,0.3,Solar Photovoltaic,(OP) Operating,34.040278,-118.1481
14236,56027,MMA LA Power LP,56814,ELACC Photovoltaic Power Facility,CA,Los Angeles,CISO,IPP Non-CHP,PV2,0.5,0.4,0.3,Solar Photovoltaic,(OP) Operating,34.040278,-118.1481
14291,56105,MMA WBF Power LP,56862,Bolthouse S&P and Rowen Farms Solar,CA,Los Angeles,CISO,IPP Non-CHP,1,0.3,0.3,0.3,Solar Photovoltaic,(OP) Operating,34.5644,-117.6933
14292,56105,MMA WBF Power LP,56862,Bolthouse S&P and Rowen Farms Solar,CA,Los Angeles,CISO,IPP Non-CHP,2,0.3,0.3,0.3,Solar Photovoltaic,(OP) Operating,34.5644,-117.6933
14293,56105,MMA WBF Power LP,56862,Bolthouse S&P and Rowen Farms Solar,CA,Los Angeles,CISO,IPP Non-CHP,3,0.3,0.3,0.3,Solar Photovoltaic,(OP) Operating,34.5644,-117.6933
14294,56105,MMA WBF Power LP,56862,Bolthouse S&P and Rowen Farms Solar,CA,Los Angeles,CISO,IPP Non-CHP,4,0.3,0.3,0.3,Solar Photovoltaic,(OP) Operating,34.5644,-117.6933
14309,57170,"EDF Renewable Asset Holdings, Inc.",56875,Sacramento Soleil LLC,CA,Sacramento,BANC,IPP Non-CHP,TBD,1,1,1,Solar Photovoltaic,(OP) Operating,38.44979,-121.1647
14370,61944,MN8 Energy LLC,56909,Gap Pacific Distribution Center,CA,Fresno,CISO,Commercial Non-CHP,1,0.6,0.3,0.3,Solar Photovoltaic,(OP) Operating,36.806476,-121.7745
14371,61944,MN8 Energy LLC,56909,Gap Pacific Distribution Center,CA,Fresno,CISO,Commercial Non-CHP,2,0.6,0.3,0.3,Solar Photovoltaic,(OP) Operating,36.806476,-121.7745
14372,61944,MN8 Energy LLC,56909,Gap Pacific Distribution Center,CA,Fresno,CISO,Commercial Non-CHP,3,0.6,0.3,0.3,Solar Photovoltaic,(OP) Operating,36.806476,-121.7745
14373,61944,MN8 Energy LLC,56909,Gap Pacific Distribution Center,CA,Fresno,CISO,Commercial Non-CHP,4,0.6,0.3,0.3,Solar Photovoltaic,(OP) Operating,36.806476,-121.7745
14382,56167,"Imperial Valley Solar, LLC",56917,"Imperial Valley Solar, LLC",CA,Imperial,CISO,IPP Non-CHP,1,101,101,101,Solar Photovoltaic,(OP) Operating,32.671099,-115.5873
14383,56167,"Imperial Valley Solar, LLC",56917,"Imperial Valley Solar, LLC",CA,Imperial,CISO,IPP Non-CHP,1A,64.6,64.6,64.6,Solar Photovoltaic,(OP) Operating,32.671099,-115.5873
14384,56167,"Imperial Valley Solar, LLC",56917,"Imperial Valley Solar, LLC",CA,Imperial,CISO,IPP Non-CHP,1B,34.3,34.3,34.3,Solar Photovoltaic,(OP) Operating,32.671099,-115.5873
14406,59399,NRG Solar Blythe,56939,Solar Blythe LLC,CA,Riverside,CISO,IPP Non-CHP,1,21,21,21,Solar Photovoltaic,(OP) Operating,33.5917,-114.7444
14522,56294,SunE WG113 Moreno Valley LLC,57004,SunEdison Walgreens Moreno Valley,CA,Riverside,CISO,IPP Non-CHP,1,1,0.9,0.9,Solar Photovoltaic,(OP) Operating,33.8672,-117.23
14523,56431,SunE U6 Holdings LLC,57005,Mariani Packing Vacaville Solar,CA,Solano,CISO,IPP Non-CHP,1,1,0.9,0.9,Solar Photovoltaic,(OP) Operating,38.40008,-121.9637
14524,56296,SunE WG45 Woodland LLC,57006,Walgreens Woodland Distribution Center,CA,Yolo,CISO,IPP Non-CHP,1,1,0.9,0.9,Solar Photovoltaic,(OP) Operating,38.674894,-121.7134
14525,56297,SunE CPA CDC2 LLC,57007,SunEdison Ironwood State Prison,CA,Riverside,CISO,IPP Non-CHP,1,1,0.9,0.9,Solar Photovoltaic,(OP) Operating,33.567268,-114.918
14526,56431,SunE U6 Holdings LLC,57008,SunEdison Procter & Gamble Oxnard,CA,Ventura,CISO,IPP Non-CHP,1,1,0.8,0.8,Solar Photovoltaic,(OP) Operating,34.2089,-119.13
14527,65923,"SunE WF3 KHL A Holdings, LLC",57009,Kohls San Bernardino Solar Facility,CA,San Bernardino,CISO,IPP Non-CHP,1,1,0.9,0.9,Solar Photovoltaic,(OP) Operating,34.094695,-117.2668
14528,56434,SunE M5 Holdings LLC,57010,SunEdison Anheuser Busch Fairfield,CA,Solano,CISO,IPP Non-CHP,1,1,0.9,0.9,Solar Photovoltaic,(OP) Operating,38.232108,-122.0927
14529,56302,SunE CPA CDC1 LLC,57011,Chuckawalla Valley State Prison,CA,Riverside,CISO,IPP Non-CHP,1,1,0.9,0.9,Solar Photovoltaic,(OP) Operating,33.565329,-114.9036
14530,56434,SunE M5 Holdings LLC,57012,SunEdison Walmart Apple Valley DC,CA,San Bernardino,CISO,IPP Non-CHP,1,1,0.9,0.9,Solar Photovoltaic,(OP) Operating,34.5975,-117.2
14625,14328,Pacific Gas & Electric Co.,57041,Vaca Dixon Solar Station,CA,Solano,CISO,Electric Utility,1,2,2,2,Solar Photovoltaic,(OP) Operating,38.4106,-121.9264
14882,56618,Victor Valley Community College District,57254,Victor Valley CC CPV Solar,CA,San Bernardino,CISO,Commercial Non-CHP,1PV,1,1,1,Solar Photovoltaic,(OP) Operating,34.48017,-117.2579
14917,64617,Alpine BESS LLC,57295,Alpine Solar,CA,Los Angeles,CISO,IPP Non-CHP,1,66,66,66,Solar Photovoltaic,(OP) Operating,34.7892,-118.5047
14945,11208,Los Angeles Department of Water & Power,57305,Adelanto Solar Project,CA,San Bernardino,LDWP,Electric Utility,1,6.8,6.8,6.8,Solar Photovoltaic,(OP) Operating,34.550833,-117.4353
14946,11208,Los Angeles Department of Water & Power,57306,Pine Tree Solar Project,CA,Kern,LDWP,Electric Utility,1,8.5,8.5,8.5,Solar Photovoltaic,(OP) Operating,35.229635,-118.1957
14947,11208,Los Angeles Department of Water & Power,57308,Maclay Solar Project,CA,Los Angeles,LDWP,Electric Utility,1,2,1.8,1.1,Solar Photovoltaic,(OP) Operating,34.319722,-118.4308
14949,59551,Occidental College,57311,Occidental College Solar Project,CA,Los Angeles,LDWP,Commercial Non-CHP,1,1,1,1,Solar Photovoltaic,(OP) Operating,34.1283,-118.2069
14950,57275,Los Angeles County Metropolitan Transportation Authority,57313,Metro Support Services Center Solar,CA,Los Angeles,LDWP,Commercial Non-CHP,1,1.1,1.1,1.1,Solar Photovoltaic,(OP) Operating,34.0578,-118.2297
14951,57276,Los Angeles Community College District,57314,Los Angeles Harbor College,CA,Los Angeles,LDWP,Commercial Non-CHP,1,1.2,2.2,2.2,Solar Photovoltaic,(OP) Operating,33.783102,-118.2849
14974,56769,Consolidated Edison Development Inc.,57340,Panoche Valley Solar Farm,CA,San Benito,CISO,IPP Non-CHP,1,140,140,140,Solar Photovoltaic,(OP) Operating,36.627,-120.879
15008,56700,Avenal Solar Holdings LLC,57359,Avenal Park,CA,Kings,CISO,IPP Non-CHP,1,6,6,6,Solar Photovoltaic,(OP) Operating,35.989722,-120.11
15009,56700,Avenal Solar Holdings LLC,57360,Sun City Project LLC,CA,Kings,CISO,IPP Non-CHP,1,20,20,20,Solar Photovoltaic,(OP) Operating,35.983056,-120.1103
15010,56700,Avenal Solar Holdings LLC,57361,Sand Drag LLC,CA,Kings,CISO,IPP Non-CHP,1,19,19,19,Solar Photovoltaic,(OP) Operating,35.982778,-120.1103
15032,56722,AV Solar Ranch 1 LLC,57378,AV Solar Ranch One,CA,Los Angeles,CISO,IPP Non-CHP,AVSR,253,241.5,241.5,Solar Photovoltaic,(OP) Operating,34.780278,-118.4244
15085,56751,Yolo County of,57422,Yolo County Solar Project,CA,Yolo,CISO,Commercial Non-CHP,1,1,1,1,Solar Photovoltaic,(OP) Operating,38.659722,-121.7294
15102,64536,Clearway Energy Operating LLC,57439,California Valley Solar Ranch,CA,San Luis Obispo,CISO,IPP Non-CHP,HPR2,32.3,32.3,32.3,Solar Photovoltaic,(OP) Operating,35.323739,-119.9166
15103,64536,Clearway Energy Operating LLC,57439,California Valley Solar Ranch,CA,San Luis Obispo,CISO,IPP Non-CHP,HPR2A,21,21,21,Solar Photovoltaic,(OP) Operating,35.323739,-119.9166
15104,64536,Clearway Energy Operating LLC,57439,California Valley Solar Ranch,CA,San Luis Obispo,CISO,IPP Non-CHP,HPR2B,86.5,86.5,86.5,Solar Photovoltaic,(OP) Operating,35.323739,-119.9166
15105,64536,Clearway Energy Operating LLC,57439,California Valley Solar Ranch,CA,San Luis Obispo,CISO,IPP Non-CHP,HPR2C,70,70,70,Solar Photovoltaic,(OP) Operating,35.323739,-119.9166
15106,64536,Clearway Energy Operating LLC,57439,California Valley Solar Ranch,CA,San Luis Obispo,CISO,IPP Non-CHP,HPR2D,40,40,40,Solar Photovoltaic,(OP) Operating,35.323739,-119.9166
15107,17609,Southern California Edison Co,57441,Solar Photovoltaic Project #42,CA,Tulare,CISO,Electric Utility,S42A,0.5,0.5,0.5,Solar Photovoltaic,(OP) Operating,36.028056,-119.0747
15108,17609,Southern California Edison Co,57441,Solar Photovoltaic Project #42,CA,Tulare,CISO,Electric Utility,S42B,0.5,0.5,0.5,Solar Photovoltaic,(OP) Operating,36.028056,-119.0747
15109,17609,Southern California Edison Co,57441,Solar Photovoltaic Project #42,CA,Tulare,CISO,Electric Utility,S42C,0.5,0.5,0.5,Solar Photovoltaic,(OP) Operating,36.028056,-119.0747
15110,17609,Southern California Edison Co,57441,Solar Photovoltaic Project #42,CA,Tulare,CISO,Electric Utility,S42D,0.5,0.5,0.5,Solar Photovoltaic,(OP) Operating,36.028056,-119.0747
15111,17609,Southern California Edison Co,57441,Solar Photovoltaic Project #42,CA,Tulare,CISO,Electric Utility,S42E,0.5,0.5,0.5,Solar Photovoltaic,(OP) Operating,36.028056,-119.0747
15112,17609,Southern California Edison Co,57441,Solar Photovoltaic Project #42,CA,Tulare,CISO,Electric Utility,S42F,0.5,0.5,0.5,Solar Photovoltaic,(OP) Operating,36.028056,-119.0747
15113,17609,Southern California Edison Co,57441,Solar Photovoltaic Project #42,CA,Tulare,CISO,Electric Utility,S42G,0.5,0.5,0.5,Solar Photovoltaic,(OP) Operating,36.028056,-119.0747
15114,17609,Southern California Edison Co,57441,Solar Photovoltaic Project #42,CA,Tulare,CISO,Electric Utility,S42H,0.5,0.5,0.5,Solar Photovoltaic,(OP) Operating,36.028056,-119.0747
15115,17609,Southern California Edison Co,57441,Solar Photovoltaic Project #42,CA,Tulare,CISO,Electric Utility,S42I,0.5,0.5,0.5,Solar Photovoltaic,(OP) Operating,36.028056,-119.0747
15116,17609,Southern California Edison Co,57441,Solar Photovoltaic Project #42,CA,Tulare,CISO,Electric Utility,S42J,0.5,0.5,0.5,Solar Photovoltaic,(OP) Operating,36.028056,-119.0747
15139,57271,NRG Solar Borrego I,57455,Solar Borrego I,CA,San Diego,CISO,IPP Non-CHP,SB1,26,26,26,Solar Photovoltaic,(OP) Operating,33.298889,-116.3508
15190,56819,CSOLAR IV South LLC,57490,Imperial Solar Energy Center South,CA,Imperial,CISO,IPP Non-CHP,56819,128.9,128.9,128.9,Solar Photovoltaic,(OP) Operating,32.663289,-115.6583
15191,57260,CSOLAR IV West LLC,57491,Imperial Solar Energy Center West,CA,Imperial,CISO,IPP Non-CHP,56819,148.7,148.7,148.7,Solar Photovoltaic,(OP) Operating,32.772225,-115.7793
15196,14328,Pacific Gas & Electric Co.,57497,Stroud Solar Station,CA,Fresno,CISO,Electric Utility,1,20,20,20,Solar Photovoltaic,(OP) Operating,36.531389,-120.1069
15197,14328,Pacific Gas & Electric Co.,57498,Five Points Solar Station,CA,Fresno,CISO,Electric Utility,1,15,15,15,Solar Photovoltaic,(OP) Operating,36.400278,-120.1033
15198,14328,Pacific Gas & Electric Co.,57499,Westside Solar Station,CA,Fresno,CISO,Electric Utility,1,15,15,15,Solar Photovoltaic,(OP) Operating,36.378726,-120.1249
15207,65924,"FRV SI Transport Solar, L.P. (Sacremento)",57506,FRV SI Transport Solar LP,CA,Sacramento,CISO,IPP Non-CHP,SEIM,1,1,1,Solar Photovoltaic,(OP) Operating,38.4869,-121.3911
15218,14328,Pacific Gas & Electric Co.,57521,Giffen,CA,Fresno,CISO,Electric Utility,1,10,10,10,Solar Photovoltaic,(OP) Operating,36.530278,-120.3161
15219,14328,Pacific Gas & Electric Co.,57522,Cantua Solar Station,CA,Fresno,CISO,Electric Utility,1,20,20,20,Solar Photovoltaic,(OP) Operating,36.425085,-120.3435
15220,14328,Pacific Gas & Electric Co.,57523,Huron Solar Station,CA,Fresno,CISO,Electric Utility,1,20,20,20,Solar Photovoltaic,(OP) Operating,36.181389,-120.0306
15239,65411,Duke Energy Renewables Services,57559,Sunset Reservoir North Basin,CA,San Francisco,CISO,IPP Non-CHP,1,4.5,4.5,4.5,Solar Photovoltaic,(OP) Operating,37.750894,-122.4818
15264,17573,South San Joaquin Irr District,57579,Robert O Schulz Solar Farm,CA,Stanislaus,CISO,Electric Utility,1,0.9,0.9,0.4,Solar Photovoltaic,(OP) Operating,37.8583,-120.8917
15265,17573,South San Joaquin Irr District,57579,Robert O Schulz Solar Farm,CA,Stanislaus,CISO,Electric Utility,2,0.4,0.4,0.2,Solar Photovoltaic,(OP) Operating,37.8583,-120.8917
15268,56917,Broadridge Customer Communications,57580,Broadridge Cogen,CA,El Dorado,CISO,IPP CHP,PV1,0.5,0.3,0.2,Solar Photovoltaic,(OP) Operating,38.6183,-121.0564
15269,56917,Broadridge Customer Communications,57580,Broadridge Cogen,CA,El Dorado,CISO,IPP CHP,PV2,0.5,0.5,0.3,Solar Photovoltaic,(OP) Operating,38.6183,-121.0564
15344,56980,"Regulus Solar, LLC",57650,Regulus Solar Project,CA,Kern,CISO,IPP Non-CHP,FRV4,60,60,60,Solar Photovoltaic,(OP) Operating,35.3,-118.8519
15345,17650,Southern Power Co,57651,Adobe Solar,CA,KERN,CISO,IPP Non-CHP,FRV3,20,20,20,Solar Photovoltaic,(OP) Operating,35.102778,-118.9544
15349,56982,Kern Community College District,57655,Bakersfield College Solar 01,CA,Kern,CISO,Commercial Non-CHP,BC01,1.1,1.1,1.1,Solar Photovoltaic,(OP) Operating,35.411817,-118.9686
15350,56984,"Temescal Canyon RV, LLC",57656,"Temescal Canyon RV, LLC",CA,Riverside,CISO,IPP Non-CHP,1,1.5,1.5,1.5,Solar Photovoltaic,(OP) Operating,33.826389,-117.5117
15385,56995,"Sacramento PV Energy, LLC",57669,SMUD at Grundman,CA,Sacramento,BANC,IPP Non-CHP,PV1,17,18,17,Solar Photovoltaic,(OP) Operating,38.364722,-121.4128
15386,56995,"Sacramento PV Energy, LLC",57670,SMUD at Van Conett,CA,Sacramento,BANC,IPP Non-CHP,PV1,2.9,2.9,2.9,Solar Photovoltaic,(OP) Operating,38.253056,-121.2789
15387,56995,"Sacramento PV Energy, LLC",57671,SMUD at Fleshman,CA,Sacramento,BANC,IPP Non-CHP,PV1,2.9,2.9,2.9,Solar Photovoltaic,(OP) Operating,38.237778,-121.3375
15402,57006,"SunE GIL1, LLC",57682,City of Madera WWTP,CA,Madera,CISO,IPP Non-CHP,1,1,1,1,Solar Photovoltaic,(OP) Operating,36.9408,-120.1572
15403,57007,"SunE WF3-ST Holdings, LLC",57683,"Staples La Mirada, CA",CA,Los Angeles,CISO,IPP Non-CHP,1,1.1,0.9,0.9,Solar Photovoltaic,(OP) Operating,33.881667,-118.0175
15411,59874,Topaz Solar Farms LLC,57695,Topaz Solar Farm,CA,San Luis Obispo,CISO,IPP Non-CHP,TPZ1,129.8,129.8,129.8,Solar Photovoltaic,(OP) Operating,35.405556,-120.0686
15412,59874,Topaz Solar Farms LLC,57695,Topaz Solar Farm,CA,San Luis Obispo,CISO,IPP Non-CHP,TPZ2,151.2,151.2,151.2,Solar Photovoltaic,(OP) Operating,35.405556,-120.0686
15413,59874,Topaz Solar Farms LLC,57695,Topaz Solar Farm,CA,San Luis Obispo,CISO,IPP Non-CHP,TPZ3,102.1,102.1,102.1,Solar Photovoltaic,(OP) Operating,35.405556,-120.0686
15414,59874,Topaz Solar Farms LLC,57695,Topaz Solar Farm,CA,San Luis Obispo,CISO,IPP Non-CHP,TPZ4,90.3,90.3,90.3,Solar Photovoltaic,(OP) Operating,35.405556,-120.0686
15415,59874,Topaz Solar Farms LLC,57695,Topaz Solar Farm,CA,San Luis Obispo,CISO,IPP Non-CHP,TPZ5,112.5,112.5,112.5,Solar Photovoltaic,(OP) Operating,35.405556,-120.0686
15417,60281,"Altus Power America Management, LLC",57697,Aerojet I,CA,Sacramento,BANC,IPP Non-CHP,1,3,3,3,Solar Photovoltaic,(OP) Operating,38.613508,-121.1629
15418,60281,"Altus Power America Management, LLC",57698,Aerojet II,CA,Sacramento,BANC,IPP Non-CHP,1,2.2,2.2,2.2,Solar Photovoltaic,(OP) Operating,38.6086,-121.1703
15441,57170,"EDF Renewable Asset Holdings, Inc.",57708,Catalina Solar LLC,CA,Kern,CISO,IPP Non-CHP,INV,110,110,110,Solar Photovoltaic,(OP) Operating,34.938261,-118.3345
15449,60025,Greenbacker Renewable Energy Corporation,57722,North Palm Springs 4A,CA,Riverside,CISO,IPP Non-CHP,1,4,4,4,Solar Photovoltaic,(OP) Operating,33.909722,-116.5625
15465,60025,Greenbacker Renewable Energy Corporation,57743,North Palm Springs 1A,CA,Riverside,CISO,IPP Non-CHP,1,2.5,2.4,2.4,Solar Photovoltaic,(OP) Operating,33.924167,-116.5933
15479,56995,"Sacramento PV Energy, LLC",57753,SMUD at Lawrence,CA,Sacramento,BANC,IPP Non-CHP,PV1,1,1,1,Solar Photovoltaic,(OP) Operating,38.338868,-121.4313
15490,61944,MN8 Energy LLC,57764,Naval Air Weapons Station China Lake,CA,Kern,CISO,Commercial Non-CHP,1,11.1,11.1,11.1,Solar Photovoltaic,(OP) Operating,35.68771,-117.6814
15502,65242,"Scale Sustainable I, LLC",57773,Palo Verde College,CA,Riverside,CISO,Commercial Non-CHP,1,1.2,1,1,Solar Photovoltaic,(OP) Operating,33.661667,-114.6517
15507,61944,MN8 Energy LLC,57777,RE Dillard 1 LLC,CA,Sacramento,BANC,IPP Non-CHP,DL1,3,3,3,Solar Photovoltaic,(OP) Operating,38.468611,-121.1819
15508,61944,MN8 Energy LLC,57778,RE Kammerer 1 LLC,CA,Sacramento,BANC,IPP Non-CHP,KAM1,5,5,5,Solar Photovoltaic,(OP) Operating,38.365053,-121.3811
15509,61944,MN8 Energy LLC,57779,RE Dillard 2 LLC,CA,Sacramento,BANC,IPP Non-CHP,DIL2,3,3,3,Solar Photovoltaic,(OP) Operating,38.466111,-121.1778
15510,61944,MN8 Energy LLC,57780,RE Kammerer 2 LLC,CA,Sacramento,BANC,IPP Non-CHP,KAM2,5,5,5,Solar Photovoltaic,(OP) Operating,38.365053,-121.3811
15511,61944,MN8 Energy LLC,57781,RE Dillard 3 LLC,CA,Sacramento,BANC,IPP Non-CHP,DIL3,3,3,3,Solar Photovoltaic,(OP) Operating,38.461944,-121.1803
15512,61944,MN8 Energy LLC,57782,RE Kammerer 3 LLC,CA,Sacramento,BANC,IPP Non-CHP,KAM3,5,5,5,Solar Photovoltaic,(OP) Operating,38.365053,-121.3811
15513,61944,MN8 Energy LLC,57783,RE Bruceville 1 LLC,CA,Sacramento,BANC,IPP Non-CHP,BRU1,5,5,5,Solar Photovoltaic,(OP) Operating,38.3475,-121.4128
15514,61944,MN8 Energy LLC,57784,RE Bruceville 2 LLC,CA,Sacramento,BANC,IPP Non-CHP,BRU2,5,5,5,Solar Photovoltaic,(OP) Operating,38.3475,-121.4128
15515,61944,MN8 Energy LLC,57785,RE Bruceville 3 LLC,CA,Sacramento,BANC,IPP Non-CHP,BRU3,5,5,5,Solar Photovoltaic,(OP) Operating,38.3475,-121.4128
15529,57104,Golden Springs Development Company LLC,57796,Golden Springs Building C-1,CA,Los Angeles,CISO,IPP Non-CHP,1,1.2,1.2,1.2,Solar Photovoltaic,(OP) Operating,33.914167,-118.0536
15530,57104,Golden Springs Development Company LLC,57797,Golden Springs Building D,CA,Los Angeles,CISO,IPP Non-CHP,1,1.3,1.3,1.3,Solar Photovoltaic,(OP) Operating,33.911944,-118.0522
15540,61944,MN8 Energy LLC,57806,RE Dillard 4 LLC,CA,Sacramento,BANC,IPP Non-CHP,DIL4,0.4,0.4,0.4,Solar Photovoltaic,(OP) Operating,38.461944,-121.1803
15547,61944,MN8 Energy LLC,57816,RE McKenzie 1 LLC,CA,Sacramento,BANC,IPP Non-CHP,MCK1,5,5,5,Solar Photovoltaic,(OP) Operating,38.302594,-121.2958
15548,61944,MN8 Energy LLC,57817,RE McKenzie 2 LLC,CA,Sacramento,BANC,IPP Non-CHP,MCK2,5,5,5,Solar Photovoltaic,(OP) Operating,38.302594,-121.2958
15549,61944,MN8 Energy LLC,57818,RE McKenzie 3 LLC,CA,Sacramento,BANC,IPP Non-CHP,MCK3,5,5,5,Solar Photovoltaic,(OP) Operating,38.302594,-121.2958
15550,61944,MN8 Energy LLC,57819,RE McKenzie 4 LLC,CA,Sacramento,BANC,IPP Non-CHP,MCK4,5,5,5,Solar Photovoltaic,(OP) Operating,38.302594,-121.2958
15551,61944,MN8 Energy LLC,57820,RE McKenzie 5 LLC,CA,Sacramento,BANC,IPP Non-CHP,MCK5,5,5,5,Solar Photovoltaic,(OP) Operating,38.302594,-121.2958
15552,61944,MN8 Energy LLC,57821,RE McKenzie 6 LLC,CA,Sacramento,BANC,IPP Non-CHP,MCK6,5,5,5,Solar Photovoltaic,(OP) Operating,38.302594,-121.2958
15556,61012,AES Distributed Energy,57827,Dinuba Wastewater Treatment Plant,CA,Tulare,CISO,Commercial Non-CHP,DSPV,1,1,1,Solar Photovoltaic,(OP) Operating,36.538056,-119.4264
15560,57154,Heliocentric LLC,57831,Heliocentric,CA,Los Angeles,CISO,IPP Non-CHP,1,1.5,1.3,1.5,Solar Photovoltaic,(OP) Operating,34.65434,-117.971
15565,57159,L-8 Solar Project LLC,57836,L-8 Solar Project,CA,Los Angeles,CISO,IPP Non-CHP,TSM,1.5,1.3,1.5,Solar Photovoltaic,(OP) Operating,34.654347,-117.9731
15571,59139,SunEdison LLC,57840,ISH Solar Hospital SDMC,CA,San Diego,CISO,IPP Non-CHP,1,1.1,1.1,1.1,Solar Photovoltaic,(OP) Operating,32.791667,-117.0953
15572,59139,SunEdison LLC,57841,ISH Solar Hospital Downey,CA,Los Angeles,CISO,IPP Non-CHP,1,1.1,1.1,1.1,Solar Photovoltaic,(OP) Operating,33.921667,-118.1244
15576,57177,"SIT Renewables, Inc.",57849,Green Acres Solar Facility 1,CA,Sacramento,BANC,IPP Non-CHP,GASF1,3,2.8,2,Solar Photovoltaic,(OP) Operating,38.282021,-121.4647
15577,57177,"SIT Renewables, Inc.",57850,Green Acres Solar Facility 2,CA,Sacramento,BANC,IPP Non-CHP,GASF2,1,0.9,0.7,Solar Photovoltaic,(OP) Operating,38.28357,-121.4613
15582,56918,University of California San Diego,57856,Univ of California San Diego Solar,CA,San Diego,CISO,Commercial Non-CHP,SGU1,1,1,1,Solar Photovoltaic,(OP) Operating,32.874379,-117.2389
15585,57194,City of Industry,57860,Industry MetroLink PV 1,CA,Los Angeles,CISO,Electric Utility,1,1.5,1.5,1.5,Solar Photovoltaic,(OP) Operating,34.008661,-117.8456
15623,57213,Castle Rock Cooling,57870,Castle Rock Vineyards,CA,Tulare,CISO,Commercial Non-CHP,SOLAR,1,1,1,Solar Photovoltaic,(OP) Operating,35.801111,-119.1106
15624,11208,Los Angeles Department of Water & Power,57871,2555 E Olympic Bl,CA,Los Angeles,LDWP,Commercial Non-CHP,1,1,1,1,Solar Photovoltaic,(OP) Operating,34.026944,-118.2242
15665,14328,Pacific Gas & Electric Co.,57891,Guernsey Solar Station,CA,Kings,CISO,Electric Utility,1,20,20,20,Solar Photovoltaic,(OP) Operating,36.163889,-119.6506
15666,14328,Pacific Gas & Electric Co.,57892,Gates Solar Station,CA,Fresno,CISO,Electric Utility,1,20,20,20,Solar Photovoltaic,(OP) Operating,36.176389,-120.1142
15668,57262,Kern County Water Agency,57895,Improvement Dst No. 4,CA,Kern,CISO,Commercial Non-CHP,ID4,1.1,1.1,1.1,Solar Photovoltaic,(OP) Operating,35.402778,-119.0386
15691,57273,SS San Antonio West LLC,57904,San Antonio West Solar Rooftop,CA,Riverside,CISO,IPP Non-CHP,CHNO,1.5,1.5,1.5,Solar Photovoltaic,(OP) Operating,33.965617,-117.6591
15723,58101,Solar Star California II LLC,57933,Solar Star California II LLC,CA,Sacramento,BANC,IPP Non-CHP,1,2,2,2,Solar Photovoltaic,(OP) Operating,38.516389,-121.4753
15752,49893,Invenergy Services LLC,57959,Desert Green Solar Farm LLC,CA,San Diego,CISO,IPP Non-CHP,1,6.3,6.3,6.3,Solar Photovoltaic,(OP) Operating,33.27055,-116.3481
15760,57345,Butte-Glenn Community College District,57970,Butte College Main Campus Solar,CA,Butte,CISO,Commercial Non-CHP,SOL1,3.5,3.6,3.5,Solar Photovoltaic,(OP) Operating,39.648056,-121.6442
15773,65432,CVI CleanCapital Solar 1 LLC,57982,Meridian Vineyards,CA,San Luis Obispo,CISO,IPP Non-CHP,PV-1,0.5,0.5,0.5,Solar Photovoltaic,(OP) Operating,35.670278,-120.5669
15774,65432,CVI CleanCapital Solar 1 LLC,57982,Meridian Vineyards,CA,San Luis Obispo,CISO,IPP Non-CHP,PV-2,0.6,0.6,0.6,Solar Photovoltaic,(OP) Operating,35.670278,-120.5669
15791,58289,"NextEra Energy Desert Sunlight 300, LLC",57993,"Desert Sunlight 300, LLC",CA,Riverside,CISO,IPP Non-CHP,DSL1,40.3,40.3,40.3,Solar Photovoltaic,(OP) Operating,33.823056,-115.3939
15792,58289,"NextEra Energy Desert Sunlight 300, LLC",57993,"Desert Sunlight 300, LLC",CA,Riverside,CISO,IPP Non-CHP,DSL10,30.2,30.2,30.2,Solar Photovoltaic,(OP) Operating,33.823056,-115.3939
15793,58289,"NextEra Energy Desert Sunlight 300, LLC",57993,"Desert Sunlight 300, LLC",CA,Riverside,CISO,IPP Non-CHP,DSL11,20.2,20.2,20.2,Solar Photovoltaic,(OP) Operating,33.823056,-115.3939
15794,58289,"NextEra Energy Desert Sunlight 300, LLC",57993,"Desert Sunlight 300, LLC",CA,Riverside,CISO,IPP Non-CHP,DSL2,40.3,40.3,40.3,Solar Photovoltaic,(OP) Operating,33.823056,-115.3939
15795,58289,"NextEra Energy Desert Sunlight 300, LLC",57993,"Desert Sunlight 300, LLC",CA,Riverside,CISO,IPP Non-CHP,DSL3,40.3,40.3,40.3,Solar Photovoltaic,(OP) Operating,33.823056,-115.3939
15796,58289,"NextEra Energy Desert Sunlight 300, LLC",57993,"Desert Sunlight 300, LLC",CA,Riverside,CISO,IPP Non-CHP,DSL4,30.2,30.2,30.2,Solar Photovoltaic,(OP) Operating,33.823056,-115.3939
15797,58289,"NextEra Energy Desert Sunlight 300, LLC",57993,"Desert Sunlight 300, LLC",CA,Riverside,CISO,IPP Non-CHP,DSL5,25.2,25.2,25.2,Solar Photovoltaic,(OP) Operating,33.823056,-115.3939
15798,58289,"NextEra Energy Desert Sunlight 300, LLC",57993,"Desert Sunlight 300, LLC",CA,Riverside,CISO,IPP Non-CHP,DSL6,25.2,25.2,25.2,Solar Photovoltaic,(OP) Operating,33.823056,-115.3939
15799,58289,"NextEra Energy Desert Sunlight 300, LLC",57993,"Desert Sunlight 300, LLC",CA,Riverside,CISO,IPP Non-CHP,DSL7,20.2,20.2,20.2,Solar Photovoltaic,(OP) Operating,33.823056,-115.3939
15800,58289,"NextEra Energy Desert Sunlight 300, LLC",57993,"Desert Sunlight 300, LLC",CA,Riverside,CISO,IPP Non-CHP,DSL8,18.9,18.9,18.9,Solar Photovoltaic,(OP) Operating,33.823056,-115.3939
15801,58289,"NextEra Energy Desert Sunlight 300, LLC",57993,"Desert Sunlight 300, LLC",CA,Riverside,CISO,IPP Non-CHP,DSL9,22.7,22.7,22.7,Solar Photovoltaic,(OP) Operating,33.823056,-115.3939
15818,56769,Consolidated Edison Development Inc.,58002,Alpaugh North,CA,Tulare,CISO,IPP Non-CHP,SPS,20,20,20,Solar Photovoltaic,(OP) Operating,35.9025,-119.4428
15819,56769,Consolidated Edison Development Inc.,58003,Alpaugh 50,CA,Tulare,CISO,IPP Non-CHP,SPS50,50,50,50,Solar Photovoltaic,(OP) Operating,35.898333,-119.4353
15861,57389,IKEA Property Inc,58028,IKEA Tejon 345,CA,Kern,CISO,Commercial Non-CHP,PV,1.5,1.5,1.5,Solar Photovoltaic,(OP) Operating,34.975278,-118.9469
15865,60281,"Altus Power America Management, LLC",58034,Nickel 1 Solar Facility,CA,Kern,CISO,IPP Non-CHP,1,1.5,1.5,1.5,Solar Photovoltaic,(OP) Operating,35.647295,-119.7165
15870,60898,Axium US Solar Holdings LLC,58039,Axium Modesto Solar,CA,Stanislaus,CISO,IPP Non-CHP,1,25,25,25,Solar Photovoltaic,(OP) Operating,37.734167,-120.9956
15899,63952,"Irwindale Brew Yard, LLC",58056,"Irwindale Brew Yard, LLC",CA,Los Angeles,CISO,Industrial Non-CHP,PV,2.5,0.8,0.8,Solar Photovoltaic,(OP) Operating,34.121667,-117.9383
15905,9216,Imperial Irrigation District,58062,Imperial Valley Solar Company 1 LLC,CA,Imperial,IID,Electric Utility,0001,23,23,23,Solar Photovoltaic,(OP) Operating,33.245833,-115.4967
15915,65432,CVI CleanCapital Solar 1 LLC,58073,SEPV 1,CA,Los Angeles,CISO,IPP Non-CHP,SEPV,2,2,2,Solar Photovoltaic,(OP) Operating,34.618861,-117.9394
15916,65432,CVI CleanCapital Solar 1 LLC,58074,SEPV 2,CA,San Bernardino,CISO,IPP Non-CHP,SEPV,2,2,2,Solar Photovoltaic,(OP) Operating,34.174167,-116.1528
15918,65164,CleanCapital Holdings,58076,Edwards Air Force Base,CA,Kern,CISO,IPP Non-CHP,1,1,1,1,Solar Photovoltaic,(OP) Operating,34.9077,-117.9206
15919,65164,CleanCapital Holdings,58076,Edwards Air Force Base,CA,Kern,CISO,IPP Non-CHP,2,1,1,1,Solar Photovoltaic,(OP) Operating,34.9077,-117.9206
15920,65164,CleanCapital Holdings,58076,Edwards Air Force Base,CA,Kern,CISO,IPP Non-CHP,3,1,1,1,Solar Photovoltaic,(OP) Operating,34.9077,-117.9206
15933,57313,Tesla Inc.,58086,Intel Folsom,CA,Sacramento,BANC,IPP Non-CHP,1,0.5,0.5,0.5,Solar Photovoltaic,(OP) Operating,38.645119,-121.173
15934,57313,Tesla Inc.,58086,Intel Folsom,CA,Sacramento,BANC,IPP Non-CHP,2,0.5,0.5,0.5,Solar Photovoltaic,(OP) Operating,38.645119,-121.173
15972,65432,CVI CleanCapital Solar 1 LLC,58118,La Joya Del Sol,CA,Fresno,CISO,IPP Non-CHP,JDS1,1.5,1.5,1.5,Solar Photovoltaic,(OP) Operating,36.678611,-119.7975
15973,62034,Depot Park Solar Farm,58119,Depot Park Solar System,CA,Sacramento,BANC,IPP Non-CHP,DPSS,3,2.7,1,Solar Photovoltaic,(OP) Operating,38.515,-121.3983
16010,58111,RE Kansas South LLC,58148,RE Kansas South LLC,CA,Kings,CISO,IPP Non-CHP,KS,20,20,20,Solar Photovoltaic,(OP) Operating,36.226111,-119.8342
16011,58112,TA-High Desert LLC,58149,TA-High Desert LLC,CA,Los Angeles,CISO,IPP Non-CHP,TAHD,20,20,20,Solar Photovoltaic,(OP) Operating,34.708889,-118.3047
16051,58104,California State University at Fullerton,58169,CSUF Trigeneration,CA,Orange,CISO,Commercial CHP,CPAC,0.3,0.3,0.3,Solar Photovoltaic,(OP) Operating,33.880638,-117.8866
16052,58104,California State University at Fullerton,58169,CSUF Trigeneration,CA,Orange,CISO,Commercial CHP,KHS,0.3,0.3,0.3,Solar Photovoltaic,(OP) Operating,33.880638,-117.8866
16053,58104,California State University at Fullerton,58169,CSUF Trigeneration,CA,Orange,CISO,Commercial CHP,NPS,2,2,2,Solar Photovoltaic,(OP) Operating,33.880638,-117.8866
16054,58104,California State University at Fullerton,58169,CSUF Trigeneration,CA,Orange,CISO,Commercial CHP,PS4,0.3,0.3,0.3,Solar Photovoltaic,(OP) Operating,33.880638,-117.8866
16055,58104,California State University at Fullerton,58169,CSUF Trigeneration,CA,Orange,CISO,Commercial CHP,PS5,0.4,0.4,0.4,Solar Photovoltaic,(OP) Operating,33.880638,-117.8866
16056,58104,California State University at Fullerton,58169,CSUF Trigeneration,CA,Orange,CISO,Commercial CHP,SCPS,1,1,1,Solar Photovoltaic,(OP) Operating,33.880638,-117.8866
16106,61944,MN8 Energy LLC,58202,RE Victor Phelan Solar One LLC,CA,San Bernardino,CISO,IPP Non-CHP,VPS1,20,20,20,Solar Photovoltaic,(OP) Operating,34.51231,-117.4775
16108,56751,Yolo County of,58204,Grassland 3&4 Solar Project,CA,Yolo,CISO,IPP Non-CHP,INV3,2,2.5,1.5,Solar Photovoltaic,(OP) Operating,38.500278,-121.6942
16110,14328,Pacific Gas & Electric Co.,58206,West Gates Solar Station,CA,Fresno,CISO,Electric Utility,1,10,10,10,Solar Photovoltaic,(OP) Operating,36.142222,-120.1325
16132,56751,Yolo County of,58217,Grassland 1&2 Solar Project,CA,Yolo,CISO,IPP Non-CHP,INV4,2,2.5,1.5,Solar Photovoltaic,(OP) Operating,38.500278,-121.6942
16145,58197,Newberry Solar 1 LLC,58226,Newberry Solar 1 LLC,CA,San Bernardino,CISO,IPP Non-CHP,1,1.5,1.5,1.5,Solar Photovoltaic,(OP) Operating,34.853581,-116.6831
16146,65411,Duke Energy Renewables Services,58227,SEPV9 Power Plant,CA,San Bernardino,CISO,IPP Non-CHP,SPV9,9,8.5,8.8,Solar Photovoltaic,(OP) Operating,34.192222,-116.0903
16149,61012,AES Distributed Energy,58232,Tahquitz High School,CA,Riverside,CISO,Commercial Non-CHP,TAHQ,1,1,1,Solar Photovoltaic,(OP) Operating,33.767222,-117.0175
16151,65411,Duke Energy Renewables Services,58234,SEPV 8,CA,San Bernardino,CISO,IPP Non-CHP,SPV8,12,11.8,11.8,Solar Photovoltaic,(OP) Operating,34.171944,-116.1525
16165,61012,AES Distributed Energy,58244,West Valley High School Solar,CA,Riverside,CISO,Commercial Non-CHP,WEST,1,0.9,0.9,Solar Photovoltaic,(OP) Operating,33.719722,-117.0097
16172,57276,Los Angeles Community College District,58248,Pierce College,CA,Los Angeles,LDWP,Commercial Non-CHP,GEN1,1.9,1.9,1.9,Solar Photovoltaic,(OP) Operating,34.183611,-118.5747
16173,59553,VA Sepulveda Ambulatory Care Center,58249,VA Sepulveda Ambulatory Care Center,CA,Los Angeles,LDWP,Commercial Non-CHP,GEN1,4.4,3.5,3.5,Solar Photovoltaic,(OP) Operating,34.248889,-118.4833
16178,63330,"Televison City Studios, LLC.",58253,CBS Television City,CA,Los Angeles,LDWP,Commercial Non-CHP,GEN1,1.6,1.6,1.6,Solar Photovoltaic,(OP) Operating,34.075,-118.36
16205,58238,Enfinity NorCal 1 FAA LLC,58261,FAA NorCal TRACON,CA,Sacramento,BANC,IPP Non-CHP,1,1,1,1,Solar Photovoltaic,(OP) Operating,38.559533,-121.2576
16255,59455,"Venable Solar, LLC",58289,Venable Solar 1,CA,Riverside,CISO,IPP Non-CHP,VNPV,1.5,1.5,1.1,Solar Photovoltaic,(OP) Operating,33.598889,-114.5717
16256,59455,"Venable Solar, LLC",58290,Venable Solar 2,CA,Riverside,CISO,IPP Non-CHP,VSPV,1.5,1.5,1.1,Solar Photovoltaic,(OP) Operating,33.597222,-114.5717
16267,60281,"Altus Power America Management, LLC",58304,Kingsburg Solar,CA,Tulare,CISO,IPP Non-CHP,1,1.5,1.5,1.5,Solar Photovoltaic,(OP) Operating,36.505278,-119.5403
16268,60281,"Altus Power America Management, LLC",58304,Kingsburg Solar,CA,Tulare,CISO,IPP Non-CHP,2,1.5,1.5,1.5,Solar Photovoltaic,(OP) Operating,36.505278,-119.5403
16269,60281,"Altus Power America Management, LLC",58304,Kingsburg Solar,CA,Tulare,CISO,IPP Non-CHP,3,0.7,0.7,0.7,Solar Photovoltaic,(OP) Operating,36.505278,-119.5403
16271,60281,"Altus Power America Management, LLC",58306,Exeter Solar,CA,Tulare,CISO,IPP Non-CHP,1,1,1,1,Solar Photovoltaic,(OP) Operating,36.2675,-119.1286
16272,60281,"Altus Power America Management, LLC",58306,Exeter Solar,CA,Tulare,CISO,IPP Non-CHP,2,1,1,1,Solar Photovoltaic,(OP) Operating,36.2675,-119.1286
16273,60281,"Altus Power America Management, LLC",58306,Exeter Solar,CA,Tulare,CISO,IPP Non-CHP,3,1.5,1.5,1.5,Solar Photovoltaic,(OP) Operating,36.2675,-119.1286
16274,60281,"Altus Power America Management, LLC",58307,Ivanhoe Solar,CA,Tulare,CISO,IPP Non-CHP,1,1.5,1.5,1.5,Solar Photovoltaic,(OP) Operating,36.3875,-119.255
16275,60281,"Altus Power America Management, LLC",58307,Ivanhoe Solar,CA,Tulare,CISO,IPP Non-CHP,2,0.5,0.5,0.5,Solar Photovoltaic,(OP) Operating,36.3875,-119.255
16276,60281,"Altus Power America Management, LLC",58307,Ivanhoe Solar,CA,Tulare,CISO,IPP Non-CHP,3,1.5,1.5,1.5,Solar Photovoltaic,(OP) Operating,36.3875,-119.255
16277,60281,"Altus Power America Management, LLC",58308,Lindsay Solar,CA,Tulare,CISO,IPP Non-CHP,1,1.5,1.5,1.5,Solar Photovoltaic,(OP) Operating,36.211944,-119.1339
16278,60281,"Altus Power America Management, LLC",58308,Lindsay Solar,CA,Tulare,CISO,IPP Non-CHP,3,1.5,1.5,1.5,Solar Photovoltaic,(OP) Operating,36.211944,-119.1339
16279,60281,"Altus Power America Management, LLC",58308,Lindsay Solar,CA,Tulare,CISO,IPP Non-CHP,4,1,1,1,Solar Photovoltaic,(OP) Operating,36.211944,-119.1339
16280,60281,"Altus Power America Management, LLC",58309,Porterville Solar,CA,Tulare,CISO,IPP Non-CHP,1,1,1,1,Solar Photovoltaic,(OP) Operating,36.102778,-119.0397
16281,60281,"Altus Power America Management, LLC",58309,Porterville Solar,CA,Tulare,CISO,IPP Non-CHP,2,1,1,1,Solar Photovoltaic,(OP) Operating,36.102778,-119.0397
16282,60281,"Altus Power America Management, LLC",58309,Porterville Solar,CA,Tulare,CISO,IPP Non-CHP,5,1.5,1.5,1.5,Solar Photovoltaic,(OP) Operating,36.102778,-119.0397
16337,60025,Greenbacker Renewable Energy Corporation,58354,Radiance Solar 4,CA,Los Angeles,CISO,IPP Non-CHP,1,1.5,1.5,1.5,Solar Photovoltaic,(OP) Operating,34.665556,-118.2881
16338,60025,Greenbacker Renewable Energy Corporation,58355,Radiance Solar 5,CA,Los Angeles,CISO,IPP Non-CHP,1,1.5,1.5,1.5,Solar Photovoltaic,(OP) Operating,34.665556,-118.2869
16348,58355,SPS Atwell Island LLC,58366,Atwell Island,CA,Tulare,CISO,IPP Non-CHP,1,20.2,20.2,20.2,Solar Photovoltaic,(OP) Operating,35.895,-119.5108
16349,60281,"Altus Power America Management, LLC",58370,Gridley Main,CA,Butte,CISO,IPP Non-CHP,GEN1,1,1,1,Solar Photovoltaic,(OP) Operating,39.373333,-121.6842
16350,60281,"Altus Power America Management, LLC",58371,Gridley Main Two,CA,Butte,CISO,IPP Non-CHP,GEN1,2.5,2.5,2.5,Solar Photovoltaic,(OP) Operating,39.373333,-121.6817
16352,56769,Consolidated Edison Development Inc.,58373,White River Solar,CA,Tulare,CISO,IPP Non-CHP,WRCA,20,20,20,Solar Photovoltaic,(OP) Operating,35.871389,-119.4625
16353,56769,Consolidated Edison Development Inc.,58374,Corcoran Solar,CA,Kings,CISO,IPP Non-CHP,CSCA,20,20,20,Solar Photovoltaic,(OP) Operating,36.138333,-119.5733
16359,58363,Oakley Solar Project LLC,58376,Oakley Solar Project,CA,Contra Costa,CISO,Commercial Non-CHP,1,1.5,1.5,1.5,Solar Photovoltaic,(OP) Operating,38.001667,-121.7478
16380,59873,"Solar Star California XIX, LLC",58388,Solar Star 1,CA,Kern,CISO,IPP Non-CHP,AVS1,39,38,38,Solar Photovoltaic,(OP) Operating,34.8181,-118.4036
16381,59873,"Solar Star California XIX, LLC",58388,Solar Star 1,CA,Kern,CISO,IPP Non-CHP,SS11,54,52.6,52.6,Solar Photovoltaic,(OP) Operating,34.8181,-118.4036
16382,59873,"Solar Star California XIX, LLC",58388,Solar Star 1,CA,Kern,CISO,IPP Non-CHP,SS12,54,52.6,52.6,Solar Photovoltaic,(OP) Operating,34.8181,-118.4036
16383,59873,"Solar Star California XIX, LLC",58388,Solar Star 1,CA,Kern,CISO,IPP Non-CHP,SS13,58.5,57,57,Solar Photovoltaic,(OP) Operating,34.8181,-118.4036
16384,59873,"Solar Star California XIX, LLC",58388,Solar Star 1,CA,Kern,CISO,IPP Non-CHP,SS14,33,32.2,32.2,Solar Photovoltaic,(OP) Operating,34.8181,-118.4036
16385,59873,"Solar Star California XIX, LLC",58388,Solar Star 1,CA,Kern,CISO,IPP Non-CHP,SS15,15,14.6,14.6,Solar Photovoltaic,(OP) Operating,34.8181,-118.4036
16386,59873,"Solar Star California XIX, LLC",58388,Solar Star 1,CA,Kern,CISO,IPP Non-CHP,SS16,64.5,62.9,62.9,Solar Photovoltaic,(OP) Operating,34.8181,-118.4036
16387,59872,"Solar Star California XX, LLC",58389,Solar Star 2,CA,Kern,CISO,IPP Non-CHP,AVS2,19.5,19,19,Solar Photovoltaic,(OP) Operating,34.848611,-118.3528
16388,59872,"Solar Star California XX, LLC",58389,Solar Star 2,CA,Kern,CISO,IPP Non-CHP,SS21,60,59,59,Solar Photovoltaic,(OP) Operating,34.848611,-118.3528
16389,59872,"Solar Star California XX, LLC",58389,Solar Star 2,CA,Kern,CISO,IPP Non-CHP,SS22,55.5,55,55,Solar Photovoltaic,(OP) Operating,34.848611,-118.3528
16390,59872,"Solar Star California XX, LLC",58389,Solar Star 2,CA,Kern,CISO,IPP Non-CHP,SS23,48,47,47,Solar Photovoltaic,(OP) Operating,34.848611,-118.3528
16391,59872,"Solar Star California XX, LLC",58389,Solar Star 2,CA,Kern,CISO,IPP Non-CHP,SS24,43.5,43,43,Solar Photovoltaic,(OP) Operating,34.848611,-118.3528
16392,59872,"Solar Star California XX, LLC",58389,Solar Star 2,CA,Kern,CISO,IPP Non-CHP,SS25,52.5,52,52,Solar Photovoltaic,(OP) Operating,34.848611,-118.3528
16400,60898,Axium US Solar Holdings LLC,58398,Heber Solar,CA,Imperial,IID,IPP Non-CHP,1,10.9,10,8.2,Solar Photovoltaic,(OP) Operating,32.7125,-115.5406
16417,58413,Lone Valley Solar Park I LLC,58417,Lone Valley Solar Park I LLC,CA,San Bernardino,CISO,IPP Non-CHP,CP1,10,10,10,Solar Photovoltaic,(OP) Operating,34.398059,-116.8655
16418,61012,AES Distributed Energy,58418,Victor Dry Farm Ranch A,CA,San Bernardino,CISO,IPP Non-CHP,1,5,5,4,Solar Photovoltaic,(OP) Operating,34.501111,-117.4667
16419,61012,AES Distributed Energy,58419,Victor Dry Farm Ranch B,CA,San Bernardino,CISO,IPP Non-CHP,1,5,5,4,Solar Photovoltaic,(OP) Operating,34.497778,-117.4711
16422,58416,"California State University, Northridge",58422,CSU Northridge Plant,CA,Los Angeles,LDWP,Commercial Non-CHP,B2PV,0.4,0.3,0.2,Solar Photovoltaic,(OP) Operating,34.243333,-118.5306
16423,58416,"California State University, Northridge",58422,CSU Northridge Plant,CA,Los Angeles,LDWP,Commercial Non-CHP,E6PV,0.2,0.1,0.1,Solar Photovoltaic,(OP) Operating,34.243333,-118.5306
16437,61230,"Arevon Energy, Inc.",58430,Centinela Solar Energy,CA,Imperial,CISO,IPP Non-CHP,CSE1,34.2,33.4,33.4,Solar Photovoltaic,(OP) Operating,32.686944,-115.6478
16438,61230,"Arevon Energy, Inc.",58430,Centinela Solar Energy,CA,Imperial,CISO,IPP Non-CHP,CSE2,26.6,25.6,25.6,Solar Photovoltaic,(OP) Operating,32.686944,-115.6478
16439,61230,"Arevon Energy, Inc.",58430,Centinela Solar Energy,CA,Imperial,CISO,IPP Non-CHP,CSE3,34.2,33.4,33.4,Solar Photovoltaic,(OP) Operating,32.686944,-115.6478
16440,61230,"Arevon Energy, Inc.",58430,Centinela Solar Energy,CA,Imperial,CISO,IPP Non-CHP,CSE4,34.2,33.4,33.4,Solar Photovoltaic,(OP) Operating,32.686944,-115.6478
16441,61230,"Arevon Energy, Inc.",58430,Centinela Solar Energy,CA,Imperial,CISO,IPP Non-CHP,CSE5,19,18.6,18.6,Solar Photovoltaic,(OP) Operating,32.686944,-115.6478
16442,61230,"Arevon Energy, Inc.",58430,Centinela Solar Energy,CA,Imperial,CISO,IPP Non-CHP,CSE6,26.6,25.6,25.6,Solar Photovoltaic,(OP) Operating,32.686944,-115.6478
16467,58440,CD US Solar MT 2 LLC,58445,Arrache 4006,CA,Los Angeles,CISO,IPP Non-CHP,1,1,1,1,Solar Photovoltaic,(OP) Operating,34.655,-118.0511
16468,58440,CD US Solar MT 2 LLC,58445,Arrache 4006,CA,Los Angeles,CISO,IPP Non-CHP,2,1,1,1,Solar Photovoltaic,(OP) Operating,34.655,-118.0511
16469,58440,CD US Solar MT 2 LLC,58446,Arrache 4013,CA,Los Angeles,CISO,IPP Non-CHP,1,1.5,1.5,1.5,Solar Photovoltaic,(OP) Operating,34.650556,-118.0519
16470,58440,CD US Solar MT 2 LLC,58447,Arrache 8083,CA,Los Angeles,CISO,IPP Non-CHP,1,1.5,1.5,1.5,Solar Photovoltaic,(OP) Operating,34.647778,-118.0611
16471,58440,CD US Solar MT 2 LLC,58447,Arrache 8083,CA,Los Angeles,CISO,IPP Non-CHP,2,1.5,1.5,1.5,Solar Photovoltaic,(OP) Operating,34.647778,-118.0611
16472,58440,CD US Solar MT 2 LLC,58447,Arrache 8083,CA,Los Angeles,CISO,IPP Non-CHP,3,1,1,1,Solar Photovoltaic,(OP) Operating,34.647778,-118.0611
16473,58440,CD US Solar MT 2 LLC,58448,Nunn,CA,San Bernardino,CISO,IPP Non-CHP,1,1,1,1,Solar Photovoltaic,(OP) Operating,34.509167,-117.1544
16474,58440,CD US Solar MT 2 LLC,58449,Rutan,CA,Los Angeles,CISO,IPP Non-CHP,1,1.5,1.5,1.5,Solar Photovoltaic,(OP) Operating,34.643889,-118.1631
16475,58440,CD US Solar MT 2 LLC,58449,Rutan,CA,Los Angeles,CISO,IPP Non-CHP,2,1.5,1.5,1.5,Solar Photovoltaic,(OP) Operating,34.643889,-118.1631
16476,58440,CD US Solar MT 2 LLC,58449,Rutan,CA,Los Angeles,CISO,IPP Non-CHP,3,1,1,1,Solar Photovoltaic,(OP) Operating,34.643889,-118.1631
16477,58440,CD US Solar MT 2 LLC,58450,Vinam,CA,Los Angeles,CISO,IPP Non-CHP,1,1.5,1.5,1.5,Solar Photovoltaic,(OP) Operating,34.668889,-118.0614
16478,58440,CD US Solar MT 2 LLC,58451,Ma,CA,Los Angeles,CISO,IPP Non-CHP,1,1.5,1.5,1.5,Solar Photovoltaic,(OP) Operating,34.695278,-118.0625
16479,58440,CD US Solar MT 2 LLC,58452,Horn,CA,Los Angeles,CISO,IPP Non-CHP,1,1.5,1.5,1.5,Solar Photovoltaic,(OP) Operating,34.708889,-118.2742
16481,58440,CD US Solar MT 2 LLC,58454,Watts 3115,CA,San Bernardino,CISO,IPP Non-CHP,1,1.5,1.5,1.5,Solar Photovoltaic,(OP) Operating,34.600833,-117.6422
16482,58440,CD US Solar MT 2 LLC,58454,Watts 3115,CA,San Bernardino,CISO,IPP Non-CHP,2,0.5,0.5,0.5,Solar Photovoltaic,(OP) Operating,34.600833,-117.6422
16492,58451,"McCoy Solar, LLC",58462,McCoy Solar Energy Project Hybrid,CA,Riverside,CISO,IPP Non-CHP,1,41.9,41.9,41.9,Solar Photovoltaic,(OP) Operating,33.694722,-114.7397
16493,58451,"McCoy Solar, LLC",58462,McCoy Solar Energy Project Hybrid,CA,Riverside,CISO,IPP Non-CHP,BLK2,21,21,21,Solar Photovoltaic,(OP) Operating,33.694722,-114.7397
16494,58451,"McCoy Solar, LLC",58462,McCoy Solar Energy Project Hybrid,CA,Riverside,CISO,IPP Non-CHP,BLK3,39.6,39.6,39.6,Solar Photovoltaic,(OP) Operating,33.694722,-114.7397
16495,58451,"McCoy Solar, LLC",58462,McCoy Solar Energy Project Hybrid,CA,Riverside,CISO,IPP Non-CHP,BLK4,31.4,31.4,31.4,Solar Photovoltaic,(OP) Operating,33.694722,-114.7397
16496,58451,"McCoy Solar, LLC",58462,McCoy Solar Energy Project Hybrid,CA,Riverside,CISO,IPP Non-CHP,BLK5,31.4,31.4,31.4,Solar Photovoltaic,(OP) Operating,33.694722,-114.7397
16497,58451,"McCoy Solar, LLC",58462,McCoy Solar Energy Project Hybrid,CA,Riverside,CISO,IPP Non-CHP,BLK6,26.9,26.9,26.9,Solar Photovoltaic,(OP) Operating,33.694722,-114.7397
16498,58451,"McCoy Solar, LLC",58462,McCoy Solar Energy Project Hybrid,CA,Riverside,CISO,IPP Non-CHP,BLK7,41.9,41.9,41.9,Solar Photovoltaic,(OP) Operating,33.694722,-114.7397
16499,58451,"McCoy Solar, LLC",58462,McCoy Solar Energy Project Hybrid,CA,Riverside,CISO,IPP Non-CHP,BLK8,36.5,36.5,36.5,Solar Photovoltaic,(OP) Operating,33.694722,-114.7397
16504,17650,Southern Power Co,58467,Campo Verde Solar,CA,Imperial,CISO,IPP Non-CHP,CVS1,147.4,139,139,Solar Photovoltaic,(OP) Operating,32.753333,-115.7264
16541,61944,MN8 Energy LLC,58498,RE Rosamond One LLC,CA,Kern,CISO,IPP Non-CHP,RONE,20,20,20,Solar Photovoltaic,(OP) Operating,34.9,-118.2469
16542,61944,MN8 Energy LLC,58499,RE Rosamond Two LLC,CA,Kern,CISO,IPP Non-CHP,RTWO,20,20,20,Solar Photovoltaic,(OP) Operating,34.900278,-118.2383
16543,61944,MN8 Energy LLC,58500,RE Rio Grande Solar LLC,CA,Kern,CISO,IPP Non-CHP,RIO,5,5,5,Solar Photovoltaic,(OP) Operating,35.00745,-118.1645
16545,61944,MN8 Energy LLC,58502,RE Columbia 3 LLC,CA,Kern,CISO,IPP Non-CHP,COL3,10,10,10,Solar Photovoltaic,(OP) Operating,35.024722,-118.1642
16550,60281,"Altus Power America Management, LLC",58506,Chuckawalla Solar,CA,Riverside,CISO,IPP Non-CHP,0937,4,4,4,Solar Photovoltaic,(OP) Operating,33.568333,-114.9181
16566,58135,Ecos Energy LLC,58508,Bear Creek Solar,CA,San Joaquin,CISO,IPP Non-CHP,PV3,1.5,1.5,1.5,Solar Photovoltaic,(OP) Operating,38.136389,-121.1489
16567,58135,Ecos Energy LLC,58509,Vintner Solar,CA,San Luis Obispo,CISO,IPP Non-CHP,PV4,1.5,1.5,1.5,Solar Photovoltaic,(OP) Operating,35.55795,-120.6829
16568,58135,Ecos Energy LLC,58510,Kettleman Solar Project,CA,San Joaquin,CISO,IPP Non-CHP,PV5,1,1,1,Solar Photovoltaic,(OP) Operating,38.12139,-121.1412
16573,60281,"Altus Power America Management, LLC",58513,Ironwood Solar LLC,CA,Riverside,CISO,IPP Non-CHP,0937,4,4,4,Solar Photovoltaic,(OP) Operating,33.565,-114.9181
16574,57365,Consolidated Edison Solutions Inc.,58514,Desert Hot Springs Solar,CA,Riverside,CISO,IPP Non-CHP,DHCA,2.3,2.2,2.2,Solar Photovoltaic,(OP) Operating,33.923056,-116.53
16583,65164,CleanCapital Holdings,58522,Madera Community Hospital,CA,Madera,CISO,IPP Non-CHP,1,1,1,1,Solar Photovoltaic,(OP) Operating,36.941111,-120.0467
16586,58500,City of Hayward,58525,City of Hayward WWTP,CA,Alameda,CISO,IPP CHP,1,1.6,1.6,1.6,Solar Photovoltaic,(OP) Operating,37.633526,-122.1397
16594,58501,Five Crowns Inc,58527,Crown Cooling Facility,CA,Imperial,IID,Industrial Non-CHP,1,1,1,1,Solar Photovoltaic,(OP) Operating,32.967222,-115.5325
16595,58503,Garnet Solar Generation Station I LLC,58528,Garnet Solar Generation Station I LLC,CA,Riverside,CISO,IPP Non-CHP,WDT44,4,4,4,Solar Photovoltaic,(OP) Operating,33.8906,-116.5431
16607,58290,"NextEra Energy Desert Sunlight 250, LLC",58542,"Desert Sunlight 250, LLC",CA,Riverside,CISO,IPP Non-CHP,DSL12,39.1,39.1,39.1,Solar Photovoltaic,(OP) Operating,33.8055,-115.3947
16608,58290,"NextEra Energy Desert Sunlight 250, LLC",58542,"Desert Sunlight 250, LLC",CA,Riverside,CISO,IPP Non-CHP,DSL13,39.1,39.1,39.1,Solar Photovoltaic,(OP) Operating,33.8055,-115.3947
16609,58290,"NextEra Energy Desert Sunlight 250, LLC",58542,"Desert Sunlight 250, LLC",CA,Riverside,CISO,IPP Non-CHP,DSL14,26.5,26.5,26.5,Solar Photovoltaic,(OP) Operating,33.8055,-115.3947
16610,58290,"NextEra Energy Desert Sunlight 250, LLC",58542,"Desert Sunlight 250, LLC",CA,Riverside,CISO,IPP Non-CHP,DSL15,13.9,13.9,13.9,Solar Photovoltaic,(OP) Operating,33.8055,-115.3947
16611,58290,"NextEra Energy Desert Sunlight 250, LLC",58542,"Desert Sunlight 250, LLC",CA,Riverside,CISO,IPP Non-CHP,DSL16,22.7,22.7,22.7,Solar Photovoltaic,(OP) Operating,33.8055,-115.3947
16612,58290,"NextEra Energy Desert Sunlight 250, LLC",58542,"Desert Sunlight 250, LLC",CA,Riverside,CISO,IPP Non-CHP,DSL17,29,29,29,Solar Photovoltaic,(OP) Operating,33.8055,-115.3947
16613,58290,"NextEra Energy Desert Sunlight 250, LLC",58542,"Desert Sunlight 250, LLC",CA,Riverside,CISO,IPP Non-CHP,DSL18,29,29,29,Solar Photovoltaic,(OP) Operating,33.8055,-115.3947
16614,58290,"NextEra Energy Desert Sunlight 250, LLC",58542,"Desert Sunlight 250, LLC",CA,Riverside,CISO,IPP Non-CHP,DSL19,25.2,25.2,25.2,Solar Photovoltaic,(OP) Operating,33.8055,-115.3947
16615,58290,"NextEra Energy Desert Sunlight 250, LLC",58542,"Desert Sunlight 250, LLC",CA,Riverside,CISO,IPP Non-CHP,DSL20,25.2,25.2,25.2,Solar Photovoltaic,(OP) Operating,33.8055,-115.3947
16618,64635,Solar Community I LLC,58545,Community Solar 1,CA,Imperial,IID,IPP Non-CHP,1,5.7,5.7,5.7,Solar Photovoltaic,(OP) Operating,32.982778,-115.4819
16664,60025,Greenbacker Renewable Energy Corporation,58578,Sonora 1,CA,Tuolumne,CISO,IPP Non-CHP,SON1,1.5,1.5,1.5,Solar Photovoltaic,(OP) Operating,37.889753,-120.5287
16666,58540,California PV Energy LLC,58581,Oltmans SCE at Champagne,CA,San Bernardino,CISO,IPP Non-CHP,1,1,1,1,Solar Photovoltaic,(OP) Operating,34.043889,-117.5311
16667,58540,California PV Energy LLC,58582,Oltmans SCE at Jurupa,CA,San Bernardino,CISO,IPP Non-CHP,1,1.5,1.5,1.5,Solar Photovoltaic,(OP) Operating,34.05,-117.5961
16676,58544,Sierra Nevada Brewing Co,58585,Sierra Nevada Brewing Co Hybrid,CA,Butte,CISO,Industrial CHP,SOLR,1.7,1.4,0.9,Solar Photovoltaic,(OP) Operating,39.724167,-121.8153
16681,58546,Cascade Solar LLC,58590,Cascade Solar,CA,San Bernardino,CISO,IPP Non-CHP,1,18.5,18.5,18.5,Solar Photovoltaic,(OP) Operating,34.157222,-116.2344
16683,17650,Southern Power Co,58592,Solar Gen 2 Solar Facility,CA,Imperial,CISO,IPP Non-CHP,ALHM,54.4,50,50,Solar Photovoltaic,(OP) Operating,33.08,-115.47
16684,17650,Southern Power Co,58592,Solar Gen 2 Solar Facility,CA,Imperial,CISO,IPP Non-CHP,ARK,54.4,50,50,Solar Photovoltaic,(OP) Operating,33.08,-115.47
16685,17650,Southern Power Co,58592,Solar Gen 2 Solar Facility,CA,Imperial,CISO,IPP Non-CHP,SONR,54.4,50,50,Solar Photovoltaic,(OP) Operating,33.08,-115.47
16705,61012,AES Distributed Energy,58609,Industry Solar Power Generation Station,CA,San Bernardino,CISO,IPP Non-CHP,ISP1,1.5,1.5,1.5,Solar Photovoltaic,(OP) Operating,34.553056,-117.4569
16706,61012,AES Distributed Energy,58610,Navajo Solar Power Generation Station 1,CA,San Bernardino,CISO,IPP Non-CHP,NSP1,1.5,1.5,1.5,Solar Photovoltaic,(OP) Operating,34.551111,-117.1911
16707,61012,AES Distributed Energy,58611,Powhatan Solar Power Generation Station,CA,San Bernardino,CISO,IPP Non-CHP,1,1.5,1.5,1.5,Solar Photovoltaic,(OP) Operating,34.496944,-117.145
16708,61012,AES Distributed Energy,58612,Otoe Solar Power Generation Station 1 LL,CA,San Bernardino,CISO,IPP Non-CHP,1,1.5,1.5,1.5,Solar Photovoltaic,(OP) Operating,34.545,-117.1919
16711,66100,Boralex US Operations LLC,58616,Westlands Solar PV Farm,CA,Fresno,CISO,IPP Non-CHP,WSF1,18,18,14,Solar Photovoltaic,(OP) Operating,36.138056,-120.0758
16718,58575,"Sol Orchard Imperial 1, LLC",58621,Sol Orchard El Centro PV,CA,Imperial,IID,IPP Non-CHP,ECPV,20,20,20,Solar Photovoltaic,(OP) Operating,32.803333,-115.5464
16724,58549,County of Alameda GSA,58625,Santa Rita Jail Hybrid,CA,Alameda,CISO,IPP CHP,SRPV2,1,1,0.1,Solar Photovoltaic,(OP) Operating,37.719167,-121.8869
16725,58549,County of Alameda GSA,58625,Santa Rita Jail Hybrid,CA,Alameda,CISO,IPP CHP,SRPV3,0.5,0.5,0.1,Solar Photovoltaic,(OP) Operating,37.719167,-121.8869
16726,61012,AES Distributed Energy,58626,Western Antelope Blue Sky Ranch A,CA,Los Angeles,CISO,IPP Non-CHP,WABSA,20,19,18,Solar Photovoltaic,(OP) Operating,34.681667,-118.3247
16727,61012,AES Distributed Energy,58627,Western Antelope Dry Ranch,CA,Los Angeles,CISO,IPP Non-CHP,WADR,10,10,9,Solar Photovoltaic,(OP) Operating,34.688889,-118.3203
16737,57313,Tesla Inc.,58633,Monterey Regional Water Pollution Contro,CA,Monterey,CISO,IPP Non-CHP,1,1,1,1,Solar Photovoltaic,(OP) Operating,36.721111,-121.7878
16738,57313,Tesla Inc.,58634,Lancaster Baptist Church,CA,Los Angeles,CISO,IPP Non-CHP,1,1,1,1,Solar Photovoltaic,(OP) Operating,34.695833,-118.0589
16740,57313,Tesla Inc.,58636,Sacramento Fairbain Water Treatment Plan,CA,Sacramento,BANC,IPP Non-CHP,1,1,1,1,Solar Photovoltaic,(OP) Operating,38.554802,-121.4168
16744,61230,"Arevon Energy, Inc.",58642,Tulare 1 and 2,CA,Tulare,CISO,IPP Non-CHP,1,1.5,1.5,1.5,Solar Photovoltaic,(OP) Operating,36.2,-119.42
16745,61230,"Arevon Energy, Inc.",58642,Tulare 1 and 2,CA,Tulare,CISO,IPP Non-CHP,2,1.5,1.5,1.5,Solar Photovoltaic,(OP) Operating,36.2,-119.42
16758,17650,Southern Power Co,58646,Stateline Solar,CA,San Bernardino,CISO,IPP Non-CHP,STL,75.9,76,76,Solar Photovoltaic,(OP) Operating,35.6,-115.4
16759,17650,Southern Power Co,58646,Stateline Solar,CA,San Bernardino,CISO,IPP Non-CHP,STL2,34.1,34,34,Solar Photovoltaic,(OP) Operating,35.6,-115.4
16760,17650,Southern Power Co,58646,Stateline Solar,CA,San Bernardino,CISO,IPP Non-CHP,STL3,37.9,38,38,Solar Photovoltaic,(OP) Operating,35.6,-115.4
16761,17650,Southern Power Co,58646,Stateline Solar,CA,San Bernardino,CISO,IPP Non-CHP,STL4,37.9,38,38,Solar Photovoltaic,(OP) Operating,35.6,-115.4
16762,17650,Southern Power Co,58646,Stateline Solar,CA,San Bernardino,CISO,IPP Non-CHP,STL5,37.9,38,38,Solar Photovoltaic,(OP) Operating,35.6,-115.4
16763,17650,Southern Power Co,58646,Stateline Solar,CA,San Bernardino,CISO,IPP Non-CHP,STL6,37.9,38,38,Solar Photovoltaic,(OP) Operating,35.6,-115.4
16764,17650,Southern Power Co,58646,Stateline Solar,CA,San Bernardino,CISO,IPP Non-CHP,STL7,37.9,38,38,Solar Photovoltaic,(OP) Operating,35.6,-115.4
16833,58622,Costco Wholesale,58698,Mira Loma,CA,Riverside,CISO,Commercial Non-CHP,D960,1,1,1,Solar Photovoltaic,(OP) Operating,34.013056,-117.5375
16834,58622,Costco Wholesale,58698,Mira Loma,CA,Riverside,CISO,Commercial Non-CHP,D9611,1.5,1.5,1.5,Solar Photovoltaic,(OP) Operating,34.013056,-117.5375
16835,58622,Costco Wholesale,58698,Mira Loma,CA,Riverside,CISO,Commercial Non-CHP,D9612,0.5,0.5,0.5,Solar Photovoltaic,(OP) Operating,34.013056,-117.5375
16849,17650,Southern Power Co,58711,Lost Hills/Blackwell,CA,Kern,CISO,IPP Non-CHP,BLKW,12,12,12,Solar Photovoltaic,(OP) Operating,35.62,-119.85
16850,17650,Southern Power Co,58711,Lost Hills/Blackwell,CA,Kern,CISO,IPP Non-CHP,LTHL,20,20,20,Solar Photovoltaic,(OP) Operating,35.62,-119.85
16851,17650,Southern Power Co,58713,North Star Solar,CA,Fresno,CISO,IPP Non-CHP,NSTR,61.6,60,60,Solar Photovoltaic,(OP) Operating,36.73,-120.41
16864,58654,Orion Solar I LLC,58718,Orion Solar I,CA,Kern,CISO,IPP Non-CHP,PV1,12,12,12,Solar Photovoltaic,(OP) Operating,35.150694,-118.875
16867,58655,"Orion Solar II, LLC",58721,Orion Solar II,CA,Kern,CISO,IPP Non-CHP,ORION,8,8,8,Solar Photovoltaic,(OP) Operating,35.150694,-118.8753
16883,61012,AES Distributed Energy,58748,North Bay Solar 1,CA,Solano,CISO,Commercial Non-CHP,NBWT,1,1,1,Solar Photovoltaic,(OP) Operating,38.300556,-121.9664
16885,61012,AES Distributed Energy,58750,Lancaster Dry Farm Ranch B,CA,Los Angeles,CISO,IPP Non-CHP,LDFRB,5,5,5,Solar Photovoltaic,(OP) Operating,34.716944,-118.2894
16886,61012,AES Distributed Energy,58751,Rodeo Solar C2,CA,Los Angeles,CISO,IPP Non-CHP,RSC2,1.5,1.5,1.5,Solar Photovoltaic,(OP) Operating,34.713333,-118.2894
16887,61012,AES Distributed Energy,58752,Rodeo Solar D2,CA,Los Angeles,CISO,IPP Non-CHP,RSD2,1.5,1.5,1.5,Solar Photovoltaic,(OP) Operating,34.713333,-118.2894
16888,61012,AES Distributed Energy,58753,Summer Solar A2,CA,Los Angeles,CISO,IPP Non-CHP,SSA2,1.5,1.5,1.5,Solar Photovoltaic,(OP) Operating,34.723056,-118.2897
16889,61012,AES Distributed Energy,58754,Summer Solar B2,CA,Los Angeles,CISO,IPP Non-CHP,SSB2,1.5,1.5,1.5,Solar Photovoltaic,(OP) Operating,34.723056,-118.2897
16890,61012,AES Distributed Energy,58755,Summer Solar C2,CA,Los Angeles,CISO,IPP Non-CHP,SSC2,1.5,1.5,1.5,Solar Photovoltaic,(OP) Operating,34.723056,-118.2897
16891,61012,AES Distributed Energy,58756,Summer Solar D2,CA,Los Angeles,CISO,IPP Non-CHP,SSD2,1,1,1,Solar Photovoltaic,(OP) Operating,34.723056,-118.2897
16892,61012,AES Distributed Energy,58757,Summer North Solar,CA,Los Angeles,CISO,IPP Non-CHP,UE2,1.5,1.5,1.5,Solar Photovoltaic,(OP) Operating,34.723056,-118.2897
16893,61012,AES Distributed Energy,58757,Summer North Solar,CA,Los Angeles,CISO,IPP Non-CHP,UF2,2,2,2,Solar Photovoltaic,(OP) Operating,34.723056,-118.2897
16894,61012,AES Distributed Energy,58757,Summer North Solar,CA,Los Angeles,CISO,IPP Non-CHP,UG2,1.5,1.5,1.5,Solar Photovoltaic,(OP) Operating,34.723056,-118.2897
16895,61012,AES Distributed Energy,58757,Summer North Solar,CA,Los Angeles,CISO,IPP Non-CHP,UH2,1.5,1.5,1.5,Solar Photovoltaic,(OP) Operating,34.723056,-118.2897
16896,61012,AES Distributed Energy,58761,Expressway Solar A,CA,San Bernardino,CISO,IPP Non-CHP,EXSA,2,2,2,Solar Photovoltaic,(OP) Operating,34.582222,-117.3417
16897,61012,AES Distributed Energy,58762,Expressway Solar B,CA,San Bernardino,CISO,IPP Non-CHP,EXSB,2,2,2,Solar Photovoltaic,(OP) Operating,34.583333,-117.3403
16898,61012,AES Distributed Energy,58763,Expressway Solar C2,CA,San Bernardino,CISO,IPP Non-CHP,EXSC2,1.5,1.5,1.5,Solar Photovoltaic,(OP) Operating,34.584444,-117.3414
16965,58696,Ignite Solar Holdings LLC,58814,Shasta Solar Farm,CA,Shasta,CISO,IPP Non-CHP,GENA,1.5,1.5,1.5,Solar Photovoltaic,(OP) Operating,41.031389,-121.4225
16966,58696,Ignite Solar Holdings LLC,58814,Shasta Solar Farm,CA,Shasta,CISO,IPP Non-CHP,GENB,1.5,1.5,1.5,Solar Photovoltaic,(OP) Operating,41.031389,-121.4225
16980,61012,AES Distributed Energy,58831,Redcrest Solar Farm,CA,Kern,CISO,IPP Non-CHP,PV-1,16.6,16,16,Solar Photovoltaic,(OP) Operating,35.321944,-118.8128
17051,58759,Perpetual Energy Systems,58889,ASTI,CA,Sonoma,CISO,IPP Non-CHP,ASTI,1.2,1.2,1.2,Solar Photovoltaic,(OP) Operating,38.761389,-122.9753
17052,58759,Perpetual Energy Systems,58890,Beringer,CA,Sonoma,CISO,IPP Non-CHP,BERI,1.4,1.4,1.4,Solar Photovoltaic,(OP) Operating,38.510833,-122.4797
17075,61944,MN8 Energy LLC,58906,Valley Center 1,CA,San Diego,CISO,IPP Non-CHP,VC1,2.5,2.5,2.5,Solar Photovoltaic,(OP) Operating,33.234167,-117.0017
17076,61944,MN8 Energy LLC,58907,Valley Center 2,CA,San Diego,CISO,IPP Non-CHP,VC2,5,5,5,Solar Photovoltaic,(OP) Operating,33.234167,-117.0017
17078,61944,MN8 Energy LLC,58909,Ramona 1,CA,San Diego,CISO,IPP Non-CHP,RAM1,2,2,2,Solar Photovoltaic,(OP) Operating,33.012222,-116.875
17079,61944,MN8 Energy LLC,58911,Ramona 2,CA,San Diego,CISO,IPP Non-CHP,RAM2,5,5,5,Solar Photovoltaic,(OP) Operating,33.012222,-116.875
17080,57104,Golden Springs Development Company LLC,58912,Santa Fe Springs Rooftop Solar BLDG M,CA,Los Angeles,CISO,IPP Non-CHP,1,1.8,1.8,1.8,Solar Photovoltaic,(OP) Operating,33.910833,-118.0444
17081,57104,Golden Springs Development Company LLC,58913,Santa Fe Springs Rooftop Solar BLDG H,CA,Los Angeles,CISO,IPP Non-CHP,1,1.5,1.5,1.5,Solar Photovoltaic,(OP) Operating,33.910833,-118.0444
17096,61315,Solarenewal LLC,58918,2081 Terzian Solar Project,CA,Fresno,CISO,IPP Non-CHP,2081,1.2,1.2,1.2,Solar Photovoltaic,(OP) Operating,36.67,-119.4158
17097,61315,Solarenewal LLC,58919,2127 Harris Solar Project,CA,Butte,CISO,IPP Non-CHP,2127,1.3,1.3,1.3,Solar Photovoltaic,(OP) Operating,39.291667,-121.6697
17098,61315,Solarenewal LLC,58920,2097 Helton Solar Project,CA,Merced,CISO,IPP Non-CHP,2097,1.5,1.5,1.5,Solar Photovoltaic,(OP) Operating,37.352222,-120.5069
17128,60281,"Altus Power America Management, LLC",58949,Cloverdale Solar I,CA,Sonoma,CISO,IPP Non-CHP,TBD,1.5,1.5,1.5,Solar Photovoltaic,(OP) Operating,38.773056,-123.0178
17132,57313,Tesla Inc.,58954,Intel Folsom Phase 2,CA,Sacramento,BANC,IPP Non-CHP,PV,1,1,1,Solar Photovoltaic,(OP) Operating,38.643611,-121.1639
17143,57313,Tesla Inc.,58963,Las Virgenes Municipal Water District,CA,Los Angeles,CISO,IPP Non-CHP,PV,1,1,1,Solar Photovoltaic,(OP) Operating,34.136111,-118.7019
17150,56769,Consolidated Edison Development Inc.,58973,White River Solar 2,CA,Tulare,CISO,IPP Non-CHP,W2CA,19.8,19.8,19.8,Solar Photovoltaic,(OP) Operating,35.874722,-119.0461
17152,17650,Southern Power Co,58975,Henrietta Solar Project,CA,Kings,CISO,IPP Non-CHP,PV1,102,100,100,Solar Photovoltaic,(OP) Operating,36.218806,-119.8058
17162,60453,Onward Energy,58983,RE Camelot LLC,CA,Kern,CISO,IPP Non-CHP,1,45,45,45,Solar Photovoltaic,(OP) Operating,35.026667,-118.1856
17163,60453,Onward Energy,58984,"RE Adams East, LLC",CA,Fresno,CISO,IPP Non-CHP,1,19,19,19,Solar Photovoltaic,(OP) Operating,36.6175,-120.2908
17164,60453,Onward Energy,58985,"RE Kansas Solar, LLC",CA,Kings,CISO,IPP Non-CHP,1,20,20,20,Solar Photovoltaic,(OP) Operating,36.247778,-119.8339
17165,60453,Onward Energy,58986,"RE Old River One, LLC",CA,Kern,CISO,IPP Non-CHP,1,20,20,20,Solar Photovoltaic,(OP) Operating,35.223333,-119.0889
17176,60453,Onward Energy,58990,"RE Columbia Two, LLC",CA,Kern,CISO,IPP Non-CHP,1,15,15,15,Solar Photovoltaic,(OP) Operating,35.026667,-118.1856
17177,60453,Onward Energy,58991,"RE Kent South, LLC",CA,Kings,CISO,IPP Non-CHP,1,20,20,20,Solar Photovoltaic,(OP) Operating,36.226111,-119.9053
17198,61012,AES Distributed Energy,59008,Woodmere Solar Farm,CA,Kern,CISO,IPP Non-CHP,PV1,15,15,14,Solar Photovoltaic,(OP) Operating,35.323056,-118.8214
17199,61012,AES Distributed Energy,59009,Hayworth Solar,CA,Kern,CISO,IPP Non-CHP,PV1,27,26,25,Solar Photovoltaic,(OP) Operating,35.325278,-118.8786
17324,60453,Onward Energy,59086,"Cottonwood Solar, LLC (Goose Lake)",CA,Kern,CISO,IPP Non-CHP,GEN1,12,12,12,Solar Photovoltaic,(OP) Operating,35.593611,-119.58
17325,60453,Onward Energy,59087,"Cottonwood Solar, LLC (City of Corcoran)",CA,Kings,CISO,IPP Non-CHP,GEN 1,12,12,12,Solar Photovoltaic,(OP) Operating,36.134444,-119.5544
17326,17650,Southern Power Co,59088,Calipatria Solar Farm,CA,Imperial,IID,IPP Non-CHP,GEN 1,20,20,20,Solar Photovoltaic,(OP) Operating,33.165833,-115.5322
17331,57313,Tesla Inc.,59094,Division 1,CA,Los Angeles,CISO,IPP Non-CHP,GEN 1,1.5,1.5,1.5,Solar Photovoltaic,(OP) Operating,34.708333,-118.1306
17332,57313,Tesla Inc.,59095,Division 2,CA,Los Angeles,CISO,IPP Non-CHP,GEN 1,1,1,1,Solar Photovoltaic,(OP) Operating,34.708333,-118.1306
17333,57313,Tesla Inc.,59096,Division 3,CA,Los Angeles,CISO,IPP Non-CHP,GEN1,1,1,1,Solar Photovoltaic,(OP) Operating,34.708333,-118.1306
17335,57313,Tesla Inc.,59098,Kettering Solar 1,CA,Los Angeles,CISO,IPP Non-CHP,PV1,1,1,1,Solar Photovoltaic,(OP) Operating,34.700278,-118.1236
17336,57313,Tesla Inc.,59099,Kettering Solar 2,CA,Los Angeles,CISO,IPP Non-CHP,PV1,1,1,1,Solar Photovoltaic,(OP) Operating,34.700278,-118.1236
17357,58944,"Enerparc CA 1, LLC",59122,Enerparc CA1 LLC,CA,San Benito,CISO,IPP Non-CHP,ECA11,1.5,1.5,1.5,Solar Photovoltaic,(OP) Operating,36.831667,-121.4042
17364,65164,CleanCapital Holdings,59129,CSD 2- Freedom High,CA,Contra Costa,CISO,IPP Non-CHP,57449,0.9,0.9,0.9,Solar Photovoltaic,(OP) Operating,37.969722,-121.7194
17365,65164,CleanCapital Holdings,59130,CSD 2 - Heritage High,CA,Contra Costa,CISO,IPP Non-CHP,57449,1.3,1.3,1.3,Solar Photovoltaic,(OP) Operating,37.921944,-121.7556
17367,65164,CleanCapital Holdings,59132,EAFB - North Base,CA,Kern,CISO,IPP Non-CHP,57449,1,1,1,Solar Photovoltaic,(OP) Operating,34.9325,-117.9072
17368,65164,CleanCapital Holdings,59133,EAFB - South Base,CA,Kern,CISO,IPP Non-CHP,57449,1,1,1,Solar Photovoltaic,(OP) Operating,34.917222,-117.9003
17373,65164,CleanCapital Holdings,59138,SDCCD - Miramar,CA,San Diego,CISO,IPP Non-CHP,57449,1,1,1,Solar Photovoltaic,(OP) Operating,32.906111,-117.1214
17374,65164,CleanCapital Holdings,59139,SDCWA - Twin Oaks,CA,San Diego,CISO,IPP Non-CHP,57449,1,1,1,Solar Photovoltaic,(OP) Operating,33.21,-117.1706
17386,61944,MN8 Energy LLC,59150,RE Mustang LLC,CA,Kings,CISO,IPP Non-CHP,PV1,100,100,100,Solar Photovoltaic,(OP) Operating,36.221667,-119.9031
17398,66100,Boralex US Operations LLC,59167,Lancaster Solar 1,CA,Los Angeles,CISO,IPP Non-CHP,LS1,1.5,1.5,1.5,Solar Photovoltaic,(OP) Operating,34.715,-118.095
17400,58976,"PsomasFMG Lancaster Solar Crest, LLC",59169,Lancaster Solar 2,CA,Los Angeles,CISO,IPP Non-CHP,LS2,1.5,1.5,1.5,Solar Photovoltaic,(OP) Operating,34.710556,-118.1661
17413,59139,SunEdison LLC,59182,Hesperia,CA,San Bernardino,CISO,IPP Non-CHP,10-94,1.5,1.5,1.5,Solar Photovoltaic,(OP) Operating,34.435,-117.3781
17414,60453,Onward Energy,59183,"CID Solar, LLC",CA,Kings,CISO,IPP Non-CHP,PV1,20,20,20,Solar Photovoltaic,(OP) Operating,36.138056,-119.5647
17430,61230,"Arevon Energy, Inc.",59203,Farmersville,CA,Tulare,CISO,IPP Non-CHP,PV1,1.5,1.5,1.5,Solar Photovoltaic,(OP) Operating,36.19,-119.12
17431,61230,"Arevon Energy, Inc.",59203,Farmersville,CA,Tulare,CISO,IPP Non-CHP,PV2,1.5,1.5,1.5,Solar Photovoltaic,(OP) Operating,36.19,-119.12
17432,61230,"Arevon Energy, Inc.",59203,Farmersville,CA,Tulare,CISO,IPP Non-CHP,PV3,1.5,1.5,1.5,Solar Photovoltaic,(OP) Operating,36.19,-119.12
17439,61230,"Arevon Energy, Inc.",59219,Porterville 6 and 7,CA,Tulare,CISO,IPP Non-CHP,PV1,1.5,1.5,1.5,Solar Photovoltaic,(OP) Operating,36.05,-119.02
17440,61230,"Arevon Energy, Inc.",59219,Porterville 6 and 7,CA,Tulare,CISO,IPP Non-CHP,PV2,1.5,1.5,1.5,Solar Photovoltaic,(OP) Operating,36.05,-119.02
17462,59041,Lone Valley Solar Park II LLC,59237,Lone Valley Solar Park II LLC,CA,San Bernardino,CISO,IPP Non-CHP,CPII,20,20,20,Solar Photovoltaic,(OP) Operating,34.408333,-116.8625
17474,65411,Duke Energy Renewables Services,59249,Rio Bravo Solar 1 LLC,CA,Kern,CISO,IPP Non-CHP,PV1,20,19.5,14.1,Solar Photovoltaic,(OP) Operating,35.416111,-119.6825
17475,65411,Duke Energy Renewables Services,59250,Rio Bravo Solar II LLC,CA,Kern,CISO,IPP Non-CHP,PV1,20,19.5,14.1,Solar Photovoltaic,(OP) Operating,35.4225,-119.6292
17477,65411,Duke Energy Renewables Services,59253,Wildwood Solar II,CA,Kern,CISO,IPP Non-CHP,PV1,15,14.7,11.2,Solar Photovoltaic,(OP) Operating,35.63,-119.5739
17489,61012,AES Distributed Energy,59262,Lancaster Little Rock,CA,Los Angeles,CISO,IPP Non-CHP,LLRC,5,5,5,Solar Photovoltaic,(OP) Operating,34.599444,-117.9328
17490,58135,Ecos Energy LLC,59265,Merced Solar LLC,CA,Merced,CISO,IPP Non-CHP,PV8,1.5,1.5,1.5,Solar Photovoltaic,(OP) Operating,37.267778,-120.4844
17491,58135,Ecos Energy LLC,59267,Mission Solar LLC,CA,Merced,CISO,IPP Non-CHP,PV9,1.5,1.5,1.5,Solar Photovoltaic,(OP) Operating,37.267778,-120.4825
17492,58135,Ecos Energy LLC,59268,Hollister Solar LLC,CA,San Benito,CISO,IPP Non-CHP,PV10,1.5,1.5,1.5,Solar Photovoltaic,(OP) Operating,36.8625,-121.4289
17493,61012,AES Distributed Energy,59269,Victor Mesa Linda B2,CA,San Bernardino,CISO,IPP Non-CHP,VMLB2,1.5,1.6,1.5,Solar Photovoltaic,(OP) Operating,34.512778,-117.3872
17494,61012,AES Distributed Energy,59270,Victor Mesa Linda C2,CA,San Bernardino,CISO,IPP Non-CHP,VMLC2,1.5,1.6,1.5,Solar Photovoltaic,(OP) Operating,34.511389,-117.3872
17495,61012,AES Distributed Energy,59271,Victor Mesa Linda D2,CA,San Bernardino,CISO,IPP Non-CHP,VMLD2,1.5,1.6,1.5,Solar Photovoltaic,(OP) Operating,34.509444,-117.3872
17496,61012,AES Distributed Energy,59272,Victor Mesa Linda E2,CA,San Bernardino,CISO,IPP Non-CHP,VMLE2,1.5,1.6,1.5,Solar Photovoltaic,(OP) Operating,34.508056,-117.3872
17497,61012,AES Distributed Energy,59273,SEPV Palmdale East,CA,Los Angeles,CISO,IPP Non-CHP,PALME,10,9,9,Solar Photovoltaic,(OP) Operating,34.613056,-117.9389
17505,58540,California PV Energy LLC,59283,California PV Energy at ISD WWTP,CA,Contra Costa,CISO,IPP Non-CHP,W4236,1,1,1,Solar Photovoltaic,(OP) Operating,38.001111,-121.7039
17515,61230,"Arevon Energy, Inc.",59300,Hanford 1 and 2,CA,Kings,CISO,IPP Non-CHP,HAN1,1.5,1.5,1.5,Solar Photovoltaic,(OP) Operating,36.306667,-119.6292
17516,61230,"Arevon Energy, Inc.",59300,Hanford 1 and 2,CA,Kings,CISO,IPP Non-CHP,HAN2,1.5,1.5,1.5,Solar Photovoltaic,(OP) Operating,36.306667,-119.6292
17523,64172,Arevon Asset Management,59308,Beacon Solar Plant Site 5,CA,Kern,LDWP,IPP Non-CHP,BEAC5,37.8,37.8,37.8,Solar Photovoltaic,(OP) Operating,35.248889,-118.0344
17524,64172,Arevon Asset Management,59309,Beacon Solar Plant Site 2,CA,Kern,LDWP,IPP Non-CHP,BEAC2,47.3,47.3,47.3,Solar Photovoltaic,(OP) Operating,35.265833,-117.9992
17533,61012,AES Distributed Energy,59315,Hecate Energy Beacon Solar 1,CA,Kern,LDWP,IPP Non-CHP,BEAC1,56,51,50,Solar Photovoltaic,(OP) Operating,35.269444,-118.0144
17534,61012,AES Distributed Energy,59316,Hecate Energy Beacon Solar 3,CA,Kern,LDWP,IPP Non-CHP,BEAC3,56,51,50,Solar Photovoltaic,(OP) Operating,35.253056,-118.0147
17535,61012,AES Distributed Energy,59317,Hecate Energy Beacon Solar 4,CA,Kern,LDWP,IPP Non-CHP,BEAC4,50,47,45,Solar Photovoltaic,(OP) Operating,35.253611,-118.0269
17540,65411,Duke Energy Renewables Services,59322,Pumpjack Solar I,CA,Kern,CISO,IPP Non-CHP,GEN1,20,20,20,Solar Photovoltaic,(OP) Operating,35.305556,-119.6225
17541,63249,Terraform Arcadia,59323,Sacramento (SMUD),CA,Sacramento,BANC,IPP Non-CHP,SMUPV,1.5,1.5,1.5,Solar Photovoltaic,(OP) Operating,38.587222,-121.4578
17554,60453,Onward Energy,59334,"Catalina Solar 2, LLC",CA,Kern,CISO,IPP Non-CHP,INV-1,18,18,18,Solar Photovoltaic,(OP) Operating,34.812222,-118.3528
17561,61230,"Arevon Energy, Inc.",59339,Quinto Solar PV Project,CA,Merced,CISO,IPP Non-CHP,SSC13,108,105.1,76.8,Solar Photovoltaic,(OP) Operating,37.130278,-121.0522
17565,59139,SunEdison LLC,59359,SCE-Snowline-Duncan Road (North),CA,San Bernardino,CISO,IPP Non-CHP,10400,1.5,1.5,1.5,Solar Photovoltaic,(OP) Operating,34.473889,-117.5628
17566,59139,SunEdison LLC,59360,SCE-Snowline-Duncan Road (South),CA,San Bernardino,CISO,IPP Non-CHP,11113,1,1,1,Solar Photovoltaic,(OP) Operating,34.471389,-117.5622
17586,65411,Duke Energy Renewables Services,59380,"Wildwood Solar I, LLC",CA,Kern,CISO,IPP Non-CHP,WLD1,19.5,19.5,19.5,Solar Photovoltaic,(OP) Operating,35.615833,-119.5783
17613,59173,City of Tulare Water Pollution Control,59395,City of Tulare Water Facility,CA,Tulare,CISO,Commercial Non-CHP,SC500,1,1,0.8,Solar Photovoltaic,(OP) Operating,36.185,-119.375
17614,59173,City of Tulare Water Pollution Control,59395,City of Tulare Water Facility,CA,Tulare,CISO,Commercial Non-CHP,SOLAR,2.4,2.2,1.7,Solar Photovoltaic,(OP) Operating,36.185,-119.375
17617,58135,Ecos Energy LLC,59405,Diamond Valley Solar Project,CA,Riverside,CISO,IPP Non-CHP,PV11,1.3,1.3,1.3,Solar Photovoltaic,(OP) Operating,33.713056,-117.0725
17620,59183,Shafter Solar LLC,59408,Shafter Solar LLC,CA,Kern,CISO,IPP Non-CHP,1,20,20,20,Solar Photovoltaic,(OP) Operating,35.393333,-119.1278
17621,59185,"CD US Solar PO 3, LLC",59409,"Madelyn Solar, LLC",CA,San Bernardino,CISO,IPP Non-CHP,SNL17,1,1,1,Solar Photovoltaic,(OP) Operating,34.768333,-117.3236
17622,59185,"CD US Solar PO 3, LLC",59410,"Rudy Solar, LLC",CA,San Bernardino,CISO,IPP Non-CHP,SNL19,1.5,1.5,1.5,Solar Photovoltaic,(OP) Operating,34.766389,-117.3236
17623,59185,"CD US Solar PO 3, LLC",59411,"Mitchell Solar, LLC",CA,San Bernardino,CISO,IPP Non-CHP,SNL18,1.5,1.5,1.5,Solar Photovoltaic,(OP) Operating,34.765,-117.3236
17624,59050,Algonquin Power Co,59412,Algonquin SKIC20 Solar LLC,CA,Kern,CISO,IPP Non-CHP,SKI20,20,20,20,Solar Photovoltaic,(OP) Operating,35.126111,-119.2433
17625,56769,Consolidated Edison Development Inc.,59413,Corcoran Solar 2,CA,Kings,CISO,IPP Non-CHP,C2CA,19.8,19.8,19.8,Solar Photovoltaic,(OP) Operating,36.141944,-119.5817
17626,56769,Consolidated Edison Development Inc.,59414,Atwell Island West Solar,CA,Tulare,CISO,IPP Non-CHP,AWCA,20,20,20,Solar Photovoltaic,(OP) Operating,35.815,-119.4597
17631,59187,Anaheim Public Utilities,59416,Anaheim Solar Energy Plant,CA,Orange,CISO,Electric Utility,PV1,2.1,2,1.2,Solar Photovoltaic,(OP) Operating,33.8025,-117.9197
17633,59139,SunEdison LLC,59421,SCE-Snowline-White Road (South),CA,San Bernardino,CISO,IPP Non-CHP,11111,1.5,1.5,1.5,Solar Photovoltaic,(OP) Operating,34.413056,-117.4708
17634,59139,SunEdison LLC,59422,SCE-Snowline-White Road (North),CA,San Bernardino,CISO,IPP Non-CHP,10401,1.5,1.5,1.5,Solar Photovoltaic,(OP) Operating,34.4175,-117.4697
17635,59139,SunEdison LLC,59423,SCE-Snowline-White Rd (Central),CA,San Bernardino,CISO,IPP Non-CHP,10402,1.5,1.5,1.5,Solar Photovoltaic,(OP) Operating,34.415278,-117.47
17647,61012,AES Distributed Energy,59431,Sierra Solar Greenworks,CA,Los Angeles,CISO,IPP Non-CHP,SSG1,20,18,18,Solar Photovoltaic,(OP) Operating,34.703611,-118.3342
17667,59212,"Adelanto Solar II, LLC",59440,"Adelanto Solar II, LLC",CA,San Bernardino,CISO,IPP Non-CHP,SAS,7,7,7,Solar Photovoltaic,(OP) Operating,34.557222,-117.3775
17668,59211,"Adelanto Solar, LLC",59441,"Adelanto Solar, LLC",CA,San Bernardino,CISO,IPP Non-CHP,SAS,20,20,20,Solar Photovoltaic,(OP) Operating,34.557222,-117.3775
17670,60453,Onward Energy,59443,"TA-Acacia, LLC",CA,Los Angeles,CISO,IPP Non-CHP,WAS1,20,20,20,Solar Photovoltaic,(OP) Operating,34.689167,-118.3247
17710,60453,Onward Energy,59469,Alamo Solar,CA,San Bernardino,CISO,IPP Non-CHP,ALAMO,20,20,20,Solar Photovoltaic,(OP) Operating,34.682222,-117.3475
17713,57369,"Apple, Inc",59473,Apple Campus 2 PV,CA,Santa Clara,CISO,Industrial Non-CHP,AC2PV,14.4,12.4,9.5,Solar Photovoltaic,(OP) Operating,37.33,-122.01
17762,59257,"Giffen Solar Park, LLC",59522,Giffen Solar Park,CA,Fresno,CISO,IPP Non-CHP,FRGSP,20,20,18,Solar Photovoltaic,(OP) Operating,36.544722,-120.3161
17763,66100,Boralex US Operations LLC,59523,Five Points Solar Park,CA,Fresno,CISO,IPP Non-CHP,FRFSP,60,60,50,Solar Photovoltaic,(OP) Operating,36.386944,-120.2367
17764,56769,Consolidated Edison Development Inc.,59524,Blackwell Solar Park,CA,Kern,CISO,IPP Non-CHP,FRBSP,20,20,20,Solar Photovoltaic,(OP) Operating,35.612,-119.845
17765,59260,Wright Solar Park LLC,59525,Wright Solar Park,CA,Merced,CISO,IPP Non-CHP,FRWSP,200,200,180,Solar Photovoltaic,(OP) Operating,37.009444,-120.9572
17768,64659,"Solar Oasis, LLC",59528,Solar Oasis LLC,CA,Los Angeles,CISO,IPP Non-CHP,OASIS,20,20,20,Solar Photovoltaic,(OP) Operating,34.648889,-118.0767
17772,59272,"41MB 8me, LLC",59531,Borden Solar Farm,CA,Madera,CISO,IPP Non-CHP,BRDN,50,50,50,Solar Photovoltaic,(OP) Operating,36.941111,-119.96
17773,59273,"62SK 8me, LLC",59532,Springbok Solar Farm 1,CA,Kern,LDWP,IPP Non-CHP,SB1,105,105,105,Solar Photovoltaic,(OP) Operating,35.249167,-117.9553
17777,65305,"Clean Focus Yield, LLC",59536,Coronus Adelanto West 1,CA,San Bernardino,CISO,IPP Non-CHP,AWI,1.5,1.5,1.5,Solar Photovoltaic,(OP) Operating,34.548056,-117.4644
17778,65305,"Clean Focus Yield, LLC",59537,Coronus Adelanto West 2,CA,San Bernardino,CISO,IPP Non-CHP,AW2,1.5,1.5,1.5,Solar Photovoltaic,(OP) Operating,34.548056,-117.4644
17779,60281,"Altus Power America Management, LLC",59539,Park Meridian #1,CA,Riverside,CISO,IPP Non-CHP,1,1.5,1.5,1.5,Solar Photovoltaic,(OP) Operating,33.896111,-117.2836
17780,60281,"Altus Power America Management, LLC",59540,Rancho Cucamonga Dist #1,CA,San Bernardino,CISO,IPP Non-CHP,2,1.8,1.8,1.8,Solar Photovoltaic,(OP) Operating,34.100278,-117.5528
17781,60281,"Altus Power America Management, LLC",59541,Terra Francesco,CA,San Bernardino,CISO,IPP Non-CHP,3,1.5,1.5,1.5,Solar Photovoltaic,(OP) Operating,34.039722,-117.6067
17790,59290,Solvida Energy Group/Blue Oak Energy,59550,Putah Creek Solar Farm,CA,Yolo,CISO,IPP Non-CHP,PCSF,2,2,2,Solar Photovoltaic,(OP) Operating,38.521111,-121.9939
17795,59298,"Vega Solar, LLC",59555,Vega Solar,CA,Merced,CISO,IPP Non-CHP,VEGA1,20,20,20,Solar Photovoltaic,(OP) Operating,36.925833,-120.82
17826,59345,"Colton Solar One, LLC",59597,"Colton Solar One, LLC",CA,San Bernardino,CISO,IPP Non-CHP,CS001,2.5,2.5,2.5,Solar Photovoltaic,(OP) Operating,34.093333,-117.3194
17827,59346,"Colton Solar Two, LLC",59598,"Colton Solar Two, LLC",CA,San Bernardino,CISO,IPP Non-CHP,CS002,1,1,1,Solar Photovoltaic,(OP) Operating,34.042222,-117.3617
17828,61230,"Arevon Energy, Inc.",59599,Tropico Solar PV Plant,CA,Tulare,CISO,IPP Non-CHP,GEN1,14,13,11,Solar Photovoltaic,(OP) Operating,35.831944,-119.0561
17829,61230,"Arevon Energy, Inc.",59600,Nicolis Solar PV Plant,CA,Tulare,CISO,IPP Non-CHP,GEN1,20,19,16,Solar Photovoltaic,(OP) Operating,35.835833,-119.0561
17835,60453,Onward Energy,59607,"Maricopa West Solar PV, LLC",CA,Kern,CISO,IPP Non-CHP,MWS,20,20,20,Solar Photovoltaic,(OP) Operating,35.115278,-119.3178
17836,59353,"AP North Lake I, LP",59610,"AP North Lake I, LP",CA,Riverside,CISO,IPP Non-CHP,APNLI,20,20,20,Solar Photovoltaic,(OP) Operating,33.74,-117.0106
17864,66100,Boralex US Operations LLC,59633,Kettleman Solar -Centaurus,CA,Kings,CISO,IPP Non-CHP,KS,20,20,18,Solar Photovoltaic,(OP) Operating,36.050833,-119.9475
17873,61230,"Arevon Energy, Inc.",59638,Coronal Lost Hills,CA,Kern,CISO,IPP Non-CHP,CLH,20,20,20,Solar Photovoltaic,(OP) Operating,35.726667,-119.9058
17889,11208,Los Angeles Department of Water & Power,59651,"Forever 21 Retail, Inc.",CA,Los Angeles,LDWP,IPP Non-CHP,W4161,1.3,1.3,1,Solar Photovoltaic,(OP) Operating,34.071389,-118.1961
17890,11208,Los Angeles Department of Water & Power,59652,Nordhoff Place,CA,Los Angeles,LDWP,IPP Non-CHP,W4162,0.9,1,0.6,Solar Photovoltaic,(OP) Operating,34.236667,-118.5658
17895,60453,Onward Energy,59657,"Imperial Valley Solar Co (IVSC) 2, LLC",CA,Imperial,IID,IPP Non-CHP,IVSC2,20,20,20,Solar Photovoltaic,(OP) Operating,33.252222,-115.4975
17921,60281,"Altus Power America Management, LLC",59687,Sun Harvest Solar NDP1,CA,Merced,CISO,IPP Non-CHP,NDP1,1.5,1.5,1.5,Solar Photovoltaic,(OP) Operating,37.05758,-120.6536
17932,60453,Onward Energy,59703,"Cottonwood Solar, LLC Cottonwood Carport",CA,Marin,CISO,IPP Non-CHP,1,1,1,1,Solar Photovoltaic,(OP) Operating,38.129759,-122.5682
17958,65411,Duke Energy Renewables Services,59722,Seville 1,CA,Imperial,IID,IPP Non-CHP,SEV1,20,20,20,Solar Photovoltaic,(OP) Operating,33.1125,-116.0139
17959,65411,Duke Energy Renewables Services,59723,Seville 2,CA,Imperial,IID,IPP Non-CHP,SEV2,30,30,30,Solar Photovoltaic,(OP) Operating,33.1101,-116.0059
17968,61012,AES Distributed Energy,59730,SEPV 18,CA,Los Angeles,CISO,IPP Non-CHP,SPV18,2,2,2,Solar Photovoltaic,(OP) Operating,34.613602,-117.9344
17975,61012,AES Distributed Energy,59737,Aspiration G,CA,Fresno,CISO,IPP Non-CHP,ASPRG,9,9,9,Solar Photovoltaic,(OP) Operating,36.552186,-120.3525
17976,61012,AES Distributed Energy,59738,Citizen B,CA,Fresno,CISO,IPP Non-CHP,CSB,5,5,5,Solar Photovoltaic,(OP) Operating,36.723806,-120.4321
17977,61012,AES Distributed Energy,59739,Lancaster WAD B,CA,Los Angeles,CISO,IPP Non-CHP,LWADB,3,3,3,Solar Photovoltaic,(OP) Operating,34.780192,-118.1933
17978,61012,AES Distributed Energy,59740,SEPV Mojave West,CA,Kern,CISO,IPP Non-CHP,SPVMW,20,20,20,Solar Photovoltaic,(OP) Operating,35.022903,-118.2827
17984,59512,"Team-Solar, Inc.",59746,DSH (CA) - Coalinga State Hospital,CA,Fresno,CISO,IPP Non-CHP,1,2,2,2,Solar Photovoltaic,(OP) Operating,36.13726,-120.2185
17986,59512,"Team-Solar, Inc.",59748,CDCR (CA) - Pleasant Valley State Prison,CA,Fresno,CISO,IPP Non-CHP,1,1.2,1.2,1.2,Solar Photovoltaic,(OP) Operating,36.137219,-120.2244
18050,11208,Los Angeles Department of Water & Power,59798,Colon PV,CA,Los Angeles,LDWP,IPP Non-CHP,W4172,1.3,0.9,1.4,Solar Photovoltaic,(OP) Operating,33.792694,-118.2524
18099,59616,"63SU 8me, LLC",59840,Springbok Solar Farm 2,CA,Kern,LDWP,IPP Non-CHP,SB2,155,155,155,Solar Photovoltaic,(OP) Operating,35.250031,-117.9768
18146,61230,"Arevon Energy, Inc.",59868,Kingbird A Solar LLC,CA,Kern,CISO,IPP Non-CHP,GEN01,20,20,20,Solar Photovoltaic,(OP) Operating,34.819,-118.432
18147,65902,"Little Bear Solar 1, LLC (Longroad)",59870,"Little Bear Solar 1, LLC",CA,Fresno,CISO,IPP Non-CHP,GEN01,40,40,40,Solar Photovoltaic,(OP) Operating,36.716,-120.415
18148,59656,Desert Quartzite LLC,59871,Desert Quartzite,CA,Riverside,CISO,IPP Non-CHP,GEN01,300,300,300,Solar Photovoltaic,(OP) Operating,33.565,-114.753
18150,59660,"Solar Star California XXXII, LLC",59872,UC Davis South Campus,CA,Yolo,CISO,Commercial Non-CHP,UCD1,13,13,13,Solar Photovoltaic,(OP) Operating,38.55,-121.75
18156,61785,EDP Renewables North America LLC,59878,Windhub Solar A LLC,CA,Kern,CISO,IPP Non-CHP,GEN01,20,20,20,Solar Photovoltaic,(OP) Operating,35.0199,-118.2879
18157,61943,"North Rosamond Solar, LLC",59879,North Rosamond Solar LLC,CA,Kern,CISO,IPP Non-CHP,GEN01,151.1,151.1,151.1,Solar Photovoltaic,(OP) Operating,34.862,-118.38
18170,56769,Consolidated Edison Development Inc.,59900,Corcoran Solar 3,CA,Kings,CISO,IPP Non-CHP,C3CA,20,20,20,Solar Photovoltaic,(OP) Operating,36.15042,-119.5854
18187,56769,Consolidated Edison Development Inc.,59915,Oro Loma,CA,Fresno,CISO,IPP Non-CHP,ORCA,20,20,20,Solar Photovoltaic,(OP) Operating,36.876847,-120.6676
18188,59139,SunEdison LLC,59916,SunE- E Philadelphia Ontario,CA,San Bernardino,CISO,IPP Non-CHP,12307,1,1,1,Solar Photovoltaic,(OP) Operating,34.03527,-117.5341
18212,17650,Southern Power Co,59939,RE Tranquillity,CA,Fresno,CISO,IPP Non-CHP,TQ,205.3,200,200,Solar Photovoltaic,(OP) Operating,36.581365,-120.4045
18213,56769,Consolidated Edison Development Inc.,59940,"Great Valley Solar Portfolio Holdings, L",CA,Fresno,CISO,IPP Non-CHP,GVS2,60,60,60,Solar Photovoltaic,(OP) Operating,36.581182,-120.3796
18214,56769,Consolidated Edison Development Inc.,59940,"Great Valley Solar Portfolio Holdings, L",CA,Fresno,CISO,IPP Non-CHP,GVS3,20,20,20,Solar Photovoltaic,(OP) Operating,36.581182,-120.3796
18215,56769,Consolidated Edison Development Inc.,59940,"Great Valley Solar Portfolio Holdings, L",CA,Fresno,CISO,IPP Non-CHP,GVS4,20,20,20,Solar Photovoltaic,(OP) Operating,36.581182,-120.3796
18216,56769,Consolidated Edison Development Inc.,59940,"Great Valley Solar Portfolio Holdings, L",CA,Fresno,CISO,IPP Non-CHP,TQ8,102.5,102.5,102.5,Solar Photovoltaic,(OP) Operating,36.581182,-120.3796
18218,63249,Terraform Arcadia,59942,Morgan Lancaster 1,CA,Los Angeles,CISO,IPP Non-CHP,ML1,1.5,1.5,1.5,Solar Photovoltaic,(OP) Operating,34.6608,-118.0836
18224,59711,Bakersfield 111 LLC,59948,Bakersfield 111,CA,Kern,PACW,IPP Non-CHP,BF111,1.4,1.4,1.4,Solar Photovoltaic,(OP) Operating,35.317551,-118.9899
18240,61012,AES Distributed Energy,59961,Western Antelope Blue Sky B,CA,Los Angeles,CISO,IPP Non-CHP,WABSB,20,19,19,Solar Photovoltaic,(OP) Operating,34.73206,-118.3136
18241,61012,AES Distributed Energy,59962,North Lancaster Ranch,CA,Los Angeles,CISO,IPP Non-CHP,NLR,20,18,17,Solar Photovoltaic,(OP) Operating,34.719538,-118.313
18242,61012,AES Distributed Energy,59963,Central Antelope Dry Ranch C,CA,Los Angeles,CISO,IPP Non-CHP,CADRC,20,17,16,Solar Photovoltaic,(OP) Operating,34.720499,-118.3005
18243,61012,AES Distributed Energy,59964,Elevation Solar C,CA,Los Angeles,CISO,IPP Non-CHP,ELVSC,40,39,37,Solar Photovoltaic,(OP) Operating,34.730263,-118.3043
18254,59727,RE Astoria LLC,59976,RE Astoria,CA,Kern,CISO,IPP Non-CHP,ASTR1,100,100,100,Solar Photovoltaic,(OP) Operating,34.844226,-118.4585
18255,59728,RE Astoria 2 LLC,59977,RE Astoria 2,CA,Kern,CISO,IPP Non-CHP,ASTR2,75,75,75,Solar Photovoltaic,(OP) Operating,34.836649,-118.4802
18256,60496,"Adapture Renewables, Inc.",59978,"Adapture CA2, LLC",CA,Glenn,PACW,IPP Non-CHP,ECA22,1.5,1.5,1.5,Solar Photovoltaic,(OP) Operating,39.69898,-122.1756
18257,59736,Columbia Solar Energy LLC,59979,"Columbia Solar Energy, LLC",CA,Contra Costa,CISO,IPP Non-CHP,GEN1,19.2,19.2,19.2,Solar Photovoltaic,(OP) Operating,38.019671,-121.8651
18281,17650,Southern Power Co,60007,Morelos del Sol,CA,Kern,CISO,IPP Non-CHP,MORLS,15,15,15,Solar Photovoltaic,(OP) Operating,35.731362,-119.8187
18300,63249,Terraform Arcadia,60026,Little Rock Pham Solar,CA,Los Angeles,LDWP,IPP Non-CHP,PV1,3,3,3,Solar Photovoltaic,(OP) Operating,34.600231,-117.9475
18301,61012,AES Distributed Energy,60027,Adera Solar,CA,Madera,CISO,IPP Non-CHP,ADERA,20,19,19,Solar Photovoltaic,(OP) Operating,37.120586,-120.3249
18305,59773,"SunE Solar XVI Lessor, LLC",60032,SunE Rochester,CA,San Bernardino,CISO,IPP Non-CHP,RCHTR,1,1,1,Solar Photovoltaic,(OP) Operating,34.097728,-117.5445
18306,61423,"California Flats Solar 130, LLC",60033,"CA Flats Solar 130, LLC",CA,San Luis Obispo,CISO,IPP Non-CHP,GEN01,130,130,130,Solar Photovoltaic,(OP) Operating,35.615573,-120.4044
18307,61230,"Arevon Energy, Inc.",60034,"CA Flats Solar 150, LLC",CA,San Luis Obispo,CISO,IPP Non-CHP,GEN01,150,150,150,Solar Photovoltaic,(OP) Operating,35.615573,-120.4044
18308,59775,"Solar Star California XXXI, LLC",60035,Tequesquite Landfill Solar PV Project,CA,Riverside,CISO,IPP Non-CHP,RPU1,7.3,7.3,7.3,Solar Photovoltaic,(OP) Operating,33.97819,-117.3851
18311,66100,Boralex US Operations LLC,60039,Frontier Solar LLC,CA,Stanislaus,CISO,IPP Non-CHP,FTRS,20,20,18,Solar Photovoltaic,(OP) Operating,37.379919,-121.1307
18313,61112,"Cuyama Solar, LLC",60043,"Cuyama Solar, LLC",CA,Santa Barbara,CISO,IPP Non-CHP,GEN01,40,40,40,Solar Photovoltaic,(OP) Operating,34.901,-119.596
18331,59791,Lindberg Field Solar I LLC,60060,Lindberg FIeld Solar,CA,San Diego,CISO,IPP Non-CHP,SDIA2,1.8,1.7,1.7,Solar Photovoltaic,(OP) Operating,32.729238,-117.2077
18332,59791,Lindberg Field Solar I LLC,60060,Lindberg FIeld Solar,CA,San Diego,CISO,IPP Non-CHP,SDIAA,0.6,0.5,0.5,Solar Photovoltaic,(OP) Operating,32.729238,-117.2077
18333,59791,Lindberg Field Solar I LLC,60060,Lindberg FIeld Solar,CA,San Diego,CISO,IPP Non-CHP,SDIAB,0.5,0.5,0.5,Solar Photovoltaic,(OP) Operating,32.729238,-117.2077
18350,56769,Consolidated Edison Development Inc.,60077,CED Avenal,CA,Kings,CISO,IPP Non-CHP,AVCA,15.8,15.8,15.8,Solar Photovoltaic,(OP) Operating,35.996324,-120.1515
18351,56769,Consolidated Edison Development Inc.,60078,CED Ducor 1,CA,Tulare,CISO,IPP Non-CHP,DU1CA,20,20,20,Solar Photovoltaic,(OP) Operating,35.856278,-119.0684
18352,56769,Consolidated Edison Development Inc.,60079,CED Ducor 2,CA,Tulare,CISO,IPP Non-CHP,DU2CA,20,20,20,Solar Photovoltaic,(OP) Operating,35.844167,-119.0681
18353,56769,Consolidated Edison Development Inc.,60080,CED Ducor 3,CA,Tulare,CISO,IPP Non-CHP,DU3CA,15,15,15,Solar Photovoltaic,(OP) Operating,35.845378,-119.057
18354,56769,Consolidated Edison Development Inc.,60081,CED Ducor 4,CA,Tulare,CISO,IPP Non-CHP,DU4CA,20,20,20,Solar Photovoltaic,(OP) Operating,35.850403,-119.027
18356,20323,"Wellhead Services, Inc",60083,Fresno Solar,CA,Fresno,CISO,IPP Non-CHP,PV-S,1.5,1.5,1.5,Solar Photovoltaic,(OP) Operating,36.616846,-120.1051
18357,20323,"Wellhead Services, Inc",60083,Fresno Solar,CA,Fresno,CISO,IPP Non-CHP,PV-W,1.5,1.5,1.5,Solar Photovoltaic,(OP) Operating,36.616846,-120.1051
18361,57313,Tesla Inc.,60085,AVS Lancaster 1,CA,Los Angeles,CISO,IPP Non-CHP,PV1,3.7,3.7,3.7,Solar Photovoltaic,(OP) Operating,34.748894,-117.9736
18362,57313,Tesla Inc.,60086,US-TOPCO (Soccer Center),CA,Los Angeles,CISO,IPP Non-CHP,PV1,3,3,3,Solar Photovoltaic,(OP) Operating,34.66072,-118.0812
18366,61230,"Arevon Energy, Inc.",60091,"Kingbird B Solar, LLC",CA,Kern,CISO,IPP Non-CHP,GEN01,20,20,20,Solar Photovoltaic,(OP) Operating,34.824206,-118.4385
18367,59843,"Blythe Solar II, LLC",60092,"Blythe Solar II, LLC",CA,Riverside,CISO,IPP Non-CHP,BLCK4,33.2,33.2,33.2,Solar Photovoltaic,(OP) Operating,33.68,-114.73
18368,59843,"Blythe Solar II, LLC",60092,"Blythe Solar II, LLC",CA,Riverside,CISO,IPP Non-CHP,BLCK5,33.9,33.9,33.9,Solar Photovoltaic,(OP) Operating,33.68,-114.73
18369,59843,"Blythe Solar II, LLC",60092,"Blythe Solar II, LLC",CA,Riverside,CISO,IPP Non-CHP,BLCK6,32,32,32,Solar Photovoltaic,(OP) Operating,33.68,-114.73
18370,59843,"Blythe Solar II, LLC",60092,"Blythe Solar II, LLC",CA,Riverside,CISO,IPP Non-CHP,BLCK7,32.1,32.1,32.1,Solar Photovoltaic,(OP) Operating,33.68,-114.73
18373,59842,"Blythe Solar 110, LLC",60093,"Blythe Solar 110, LLC",CA,Riverside,CISO,IPP Non-CHP,BLCK1,38.7,38.7,38.7,Solar Photovoltaic,(OP) Operating,33.68,-114.742
18374,59842,"Blythe Solar 110, LLC",60093,"Blythe Solar 110, LLC",CA,Riverside,CISO,IPP Non-CHP,BLCK2,36.3,36.3,36.3,Solar Photovoltaic,(OP) Operating,33.68,-114.742
18375,59842,"Blythe Solar 110, LLC",60093,"Blythe Solar 110, LLC",CA,Riverside,CISO,IPP Non-CHP,BLCK3,34.8,34.8,34.8,Solar Photovoltaic,(OP) Operating,33.68,-114.742
18376,59844,"Blythe Solar III, LLC",60094,"Blythe Solar III, LLC Hybrid",CA,Riverside,CISO,IPP Non-CHP,BLSL3,136.8,136.8,136.8,Solar Photovoltaic,(OP) Operating,33.656,-114.742
18378,59845,"Blythe Solar IV, LLC",60095,"Blythe Solar IV, LLC",CA,Riverside,CISO,IPP Non-CHP,BLS4A,68.7,68.7,68.7,Solar Photovoltaic,(OP) Operating,33.682,-114.768
18379,59845,"Blythe Solar IV, LLC",60095,"Blythe Solar IV, LLC",CA,Riverside,CISO,IPP Non-CHP,BLS4B,68.7,68.7,68.7,Solar Photovoltaic,(OP) Operating,33.682,-114.768
18433,61012,AES Distributed Energy,60142,Lemoore 1,CA,Kings,CISO,IPP Non-CHP,LEPV1,1.5,1.5,1.5,Solar Photovoltaic,(OP) Operating,36.257938,-119.7981
18441,57104,Golden Springs Development Company LLC,60151,Building F,CA,Los Angeles,CISO,IPP Non-CHP,BLDGF,1.3,1.3,1.3,Solar Photovoltaic,(OP) Operating,33.914356,-118.0502
18443,57104,Golden Springs Development Company LLC,60153,Building G,CA,Los Angeles,CISO,IPP Non-CHP,BLDGG,1.2,1.2,1.2,Solar Photovoltaic,(OP) Operating,33.912917,-118.0506
18444,57104,Golden Springs Development Company LLC,60154,Buidling L,CA,Los Angeles,CISO,IPP Non-CHP,BLDG1,1,1,1,Solar Photovoltaic,(OP) Operating,33.912917,-118.0419
18454,57104,Golden Springs Development Company LLC,60182,Dulles,CA,Riverside,CISO,IPP Non-CHP,DULLE,2,2,2,Solar Photovoltaic,(OP) Operating,34.030119,-117.5178
18455,57104,Golden Springs Development Company LLC,60183,Freeway Springs,CA,Los Angeles,CISO,IPP Non-CHP,FSPRI,2,2,2,Solar Photovoltaic,(OP) Operating,33.892614,-118.0376
18458,61012,AES Distributed Energy,60185,Solverde 1,CA,Los Angeles,CISO,IPP Non-CHP,SOLV1,85,81,78,Solar Photovoltaic,(OP) Operating,34.655694,-118.2982
18459,61012,AES Distributed Energy,60186,Antelope DSR 1,CA,Los Angeles,CISO,IPP Non-CHP,DSR1,50,48,46,Solar Photovoltaic,(OP) Operating,34.655556,-118.2807
18460,61012,AES Distributed Energy,60187,Antelope DSR 2,CA,Los Angeles,CISO,IPP Non-CHP,DSR2,5,5,5,Solar Photovoltaic,(OP) Operating,34.686944,-118.3117
18465,59969,Whitethorn Solar LLC,60193,Whitethorn Solar LLC,CA,Alameda,CISO,IPP Non-CHP,GEN1,3.3,3.3,3.3,Solar Photovoltaic,(OP) Operating,37.691,-121.717
18479,64778,"Strata Manager, LLC",60219,Strata Roof 1,CA,Sacramento,BANC,IPP Non-CHP,UNIT1,1,1,0.6,Solar Photovoltaic,(OP) Operating,38.643527,-121.5055
18497,60413,"Rancho Seco Solar, LLC",60226,"Rancho Seco Solar, LLC",CA,Sacramento,BANC,IPP Non-CHP,GEN01,10.8,10.8,10.8,Solar Photovoltaic,(OP) Operating,38.339857,-121.1145
18503,57313,Tesla Inc.,60231,Genentech-Oceanside Hybrid,CA,San Diego,CISO,IPP Non-CHP,PV1,4.5,4.5,4.5,Solar Photovoltaic,(OP) Operating,33.211095,-117.2996
18507,17650,Southern Power Co,60233,RE Garland,CA,Kern,CISO,IPP Non-CHP,PV2,185.1,180,180,Solar Photovoltaic,(OP) Operating,34.825267,-118.525
18514,58468,Dominion Renewable Energy,60237,Midway Solar Farm II,CA,Imperial,IID,IPP Non-CHP,MSF2,30,30,30,Solar Photovoltaic,(OP) Operating,33.162056,-115.5317
18520,59050,Algonquin Power Co,60242,"Algonquin SKIC 10 Solar, LLC",CA,Kern,CISO,IPP Non-CHP,SKI10,10,10,10,Solar Photovoltaic,(OP) Operating,35.126111,-119.2434
18544,12397,Metropolitan Water District of S CA,60255,Weymouth Solar Plant,CA,Los Angeles,CISO,Electric Utility,1,2,2,2,Solar Photovoltaic,(OP) Operating,34.108618,-117.7822
18545,12397,Metropolitan Water District of S CA,60255,Weymouth Solar Plant,CA,Los Angeles,CISO,Electric Utility,2,1,1,1,Solar Photovoltaic,(OP) Operating,34.108618,-117.7822
18569,60067,Westside Assets LLC,60275,Westside Solar Power PV1,CA,Kings,CISO,IPP Non-CHP,WSPV1,2,2,2,Solar Photovoltaic,(OP) Operating,36.219,-119.907
18573,61012,AES Distributed Energy,60279,Antelope Big Sky Ranch,CA,Los Angeles,CISO,IPP Non-CHP,ABSR,20,19,19,Solar Photovoltaic,(OP) Operating,34.694839,-118.2877
18574,61012,AES Distributed Energy,60280,Summer Solar LLC,CA,Los Angeles,CISO,IPP Non-CHP,SUMSL,20,19,19,Solar Photovoltaic,(OP) Operating,34.714703,-118.311
18575,63250,"Central Antelope Dry Ranch B, LLC",60281,Central Antelope Dry Ranch B LLC,CA,Los Angeles,CISO,IPP Non-CHP,CADRB,3,3,3,Solar Photovoltaic,(OP) Operating,34.705549,-118.3014
18597,60412,"Portal Ridge Solar, LLC",60310,"Portal Ridge Solar B, LLC",CA,Los Angeles,CISO,IPP Non-CHP,GEN01,20,20,20,Solar Photovoltaic,(OP) Operating,34.71647,-118.2821
18598,60412,"Portal Ridge Solar, LLC",60311,"Portal Ridge Solar C, LLC",CA,Los Angeles,CISO,IPP Non-CHP,GEN01,11.4,11.4,11.4,Solar Photovoltaic,(OP) Operating,34.71412,-118.2739
18602,60025,Greenbacker Renewable Energy Corporation,60315,Midway Solar Farm III,CA,Imperial,IID,IPP Non-CHP,MSF3,20,20,20,Solar Photovoltaic,(OP) Operating,33.154761,-115.5449
18609,61672,Willow Spring Solar LLC,60324,"Willow Spring Solar, LLC",CA,Kern,CISO,IPP Non-CHP,GEN01,107.9,107.9,107.9,Solar Photovoltaic,(OP) Operating,34.826697,-118.3352
18627,60118,"83WI 8ME, LLC",60336,Midway Solar Farm 1,CA,Imperial,IID,IPP Non-CHP,MSF1,50,50,50,Solar Photovoltaic,(OP) Operating,33.176627,-115.5728
18687,17650,Southern Power Co,60386,RE Garland A,CA,Kern,CISO,IPP Non-CHP,PV1,20.2,20,20,Solar Photovoltaic,(OP) Operating,34.821453,-118.4974
18691,60191,"RE Barren Ridge 1, LLC",60389,RE Barren Ridge 1,CA,Kern,LDWP,IPP Non-CHP,REBR1,60,60,60,Solar Photovoltaic,(OP) Operating,35.20473,-118.0688
18714,58135,Ecos Energy LLC,60412,Munro Valley Solar,CA,Inyo,CISO,IPP Non-CHP,MUN,4,4,4,Solar Photovoltaic,(OP) Operating,36.2647,-117.9955
18727,61944,MN8 Energy LLC,60426,RCWD PV Project,CA,Riverside,CISO,IPP Non-CHP,RCWD,4.1,3.9,2.7,Solar Photovoltaic,(OP) Operating,33.5226,-117.1815
18729,58540,California PV Energy LLC,60428,CA Dept of Public Health at Richmond,CA,Contra Costa,CISO,IPP Non-CHP,PV1,2.2,2.2,2.2,Solar Photovoltaic,(OP) Operating,37.92,-122.344
18743,63249,Terraform Arcadia,60446,E&B Resources,CA,Kern,CISO,IPP Non-CHP,PVEB,1,1,1,Solar Photovoltaic,(OP) Operating,35.534584,-119.06
18747,63249,Terraform Arcadia,60450,Corcoran,CA,Kings,CISO,IPP Non-CHP,PVCR,1.1,1.1,1.1,Solar Photovoltaic,(OP) Operating,36.102307,-119.5665
18776,61012,AES Distributed Energy,60474,"Bayshore Solar B, LLC",CA,Los Angeles,CISO,IPP Non-CHP,BSHRB,20,20,20,Solar Photovoltaic,(OP) Operating,34.678305,-118.3026
18777,61012,AES Distributed Energy,60475,"Bayshore Solar C, LLC",CA,Los Angeles,CISO,IPP Non-CHP,BSHRC,20,20,20,Solar Photovoltaic,(OP) Operating,34.681338,-118.3141
18782,61012,AES Distributed Energy,60481,"Bayshore Solar A, LLC",CA,Los Angeles,CISO,IPP Non-CHP,BSHRA,20,20,20,Solar Photovoltaic,(OP) Operating,34.667817,-118.2981
18784,65411,Duke Energy Renewables Services,60485,"Longboat Solar, LLC",CA,San Bernardino,CISO,IPP Non-CHP,PV1,20,20,20,Solar Photovoltaic,(OP) Operating,34.541,-117.061
18789,60277,54 KR 8me LLC,60490,Redwood 4 Solar Farm,CA,Kern,CISO,IPP Non-CHP,RW4SF,20,20,20,Solar Photovoltaic,(OP) Operating,35.314198,-118.8119
18791,60278,64KT 8me LLC,60491,Springbok 3 Solar Farm Hybrid,CA,Kern,LDWP,IPP Non-CHP,SB3SF,90,90,90,Solar Photovoltaic,(OP) Operating,35.171153,-118.0017
18807,59462,"Heelstone Energy Holdings, LLC",60509,Valley Center,CA,San Diego,CISO,IPP Non-CHP,PV1,2.3,2.3,2.3,Solar Photovoltaic,(OP) Operating,33.2503,-117.0226
18814,59462,"Heelstone Energy Holdings, LLC",60516,NLP Granger,CA,San Diego,CISO,IPP Non-CHP,PV1,3,3,3,Solar Photovoltaic,(OP) Operating,33.2704,-117.0588
18856,60307,NRG Solar Blythe II LLC,60558,Solar Blythe 2,CA,Riverside,CISO,IPP Non-CHP,PV1,20,20,20,Solar Photovoltaic,(OP) Operating,33.618678,-114.6962
18897,61944,MN8 Energy LLC,60590,"Golden Fields Solar I, LLC",CA,Kern,CISO,IPP Non-CHP,RS1,54,54,54,Solar Photovoltaic,(OP) Operating,34.839012,-118.3868
18898,61944,MN8 Energy LLC,60591,"Solar Star California, XLI, LLC",CA,Kern,CISO,IPP Non-CHP,RS1,54,54,54,Solar Photovoltaic,(OP) Operating,34.839012,-118.3868
18977,60399,"GASNA 6P, LLC",60678,San Joaquin Solar,CA,Fresno,CISO,IPP Non-CHP,SJ1A,19.8,18.5,18.5,Solar Photovoltaic,(OP) Operating,36.527,-120.149
18978,60399,"GASNA 6P, LLC",60678,San Joaquin Solar,CA,Fresno,CISO,IPP Non-CHP,SJ1B,1.5,1.5,1.5,Solar Photovoltaic,(OP) Operating,36.527,-120.149
19086,61012,AES Distributed Energy,60744,SEPV Imperial Dixieland West,CA,Imperial,IID,IPP Non-CHP,SESI2,3,2.9,2.4,Solar Photovoltaic,(OP) Operating,32.79411,-115.7793
19087,61012,AES Distributed Energy,60745,SEPV Imperial Dixieland East,CA,Imperial,IID,IPP Non-CHP,SESI1,2,1.9,1.6,Solar Photovoltaic,(OP) Operating,32.792038,-115.7734
19123,61944,MN8 Energy LLC,60777,"American Kings Solar, LLC",CA,Kings,CISO,IPP Non-CHP,GEN01,128,128,128,Solar Photovoltaic,(OP) Operating,36.24,-119.898
19137,60455,"PVN Milliken, LLC",60790,"PVN Milliken, LLC",CA,San Bernardino,CISO,IPP Non-CHP,PV,3,3,3,Solar Photovoltaic,(OP) Operating,34.038433,-117.5658
19138,796,Arizona Electric Pwr Coop Inc,60791,SunAnza,CA,Riverside,CISO,Electric Utility,ANZA1,2,2,2,Solar Photovoltaic,(OP) Operating,33.555267,-116.6396
19139,796,Arizona Electric Pwr Coop Inc,60791,SunAnza,CA,Riverside,CISO,Electric Utility,ANZA2,1.4,1.4,1.4,Solar Photovoltaic,(OP) Operating,33.555267,-116.6396
19160,60496,"Adapture Renewables, Inc.",60813,Cloverdale Solar Center,CA,Sonoma,CISO,IPP Non-CHP,ECA02,1,1,1,Solar Photovoltaic,(OP) Operating,38.769581,-123.0207
19174,57313,Tesla Inc.,60824,Valley Sanitary District WTP Solar,CA,Riverside,LDWP,IPP Non-CHP,PV1,1,1,1,Solar Photovoltaic,(OP) Operating,33.708661,-116.1989
19175,60495,"Sunpin Holdings, LLC",60825,Colgreen North Shore Solar Farm,CA,Riverside,IID,IPP Non-CHP,CNS1,74.8,74.8,74.8,Solar Photovoltaic,(OP) Operating,33.540124,-115.9748
19196,57313,Tesla Inc.,60844,Genentech Vacaville Meter #1,CA,Solano,CISO,IPP Non-CHP,PV1,3.8,3.8,3.8,Solar Photovoltaic,(OP) Operating,38.390756,-121.9478
19197,57313,Tesla Inc.,60844,Genentech Vacaville Meter #1,CA,Solano,CISO,IPP Non-CHP,PV2,2.3,2.3,2.3,Solar Photovoltaic,(OP) Operating,38.390756,-121.9478
19198,57313,Tesla Inc.,60846,US GSA - Sacramento,CA,Sacramento,BANC,IPP Non-CHP,PV1,1.1,1.1,1.1,Solar Photovoltaic,(OP) Operating,38.601354,-121.3979
19212,60518,"California PV Energy 2, LLC",60861,Dept of General Services -FTB,CA,Sacramento,BANC,IPP Non-CHP,PV1,2.7,2.7,2.7,Solar Photovoltaic,(OP) Operating,38.565,-121.343
19219,61944,MN8 Energy LLC,60869,"Solar Star California, XLIV, LLC",CA,Los Angeles,CISO,IPP Non-CHP,PB1,9.5,9.5,9.5,Solar Photovoltaic,(OP) Operating,34.511889,-117.9228
19261,60281,"Altus Power America Management, LLC",60914,Westmont 300B,CA,Los Angeles,LDWP,IPP Non-CHP,W5328,3,2.3,1.5,Solar Photovoltaic,(OP) Operating,33.766067,-118.2847
19321,49893,Invenergy Services LLC,60947,Jacumba Solar Farm,CA,San Diego,CISO,IPP Non-CHP,Q644A,20,20,20,Solar Photovoltaic,(OP) Operating,32.6212,-116.129
19324,11208,Los Angeles Department of Water & Power,60953,Owens Valley Solar Project 11,CA,Inyo,LDWP,IPP Non-CHP,W5381,1,1,1,Solar Photovoltaic,(OP) Operating,36.275144,-118.0122
19353,60619,"Whitney Point Solar, LLC",60975,Whitney Point Solar,CA,Fresno,CISO,IPP Non-CHP,WS532,20,20,20,Solar Photovoltaic,(OP) Operating,36.376889,-120.1385
19355,61944,MN8 Energy LLC,60978,CSUF State College,CA,Orange,CISO,IPP Non-CHP,PV1,1,1,1,Solar Photovoltaic,(OP) Operating,33.87912,-117.8887
19356,61944,MN8 Energy LLC,60979,CSUF Nutwood Solar,CA,Orange,CISO,IPP Non-CHP,PV1,1.9,1.9,1.9,Solar Photovoltaic,(OP) Operating,33.87912,-117.8887
19358,60614,"Westside Solar, LLC",60981,NextEra Westside PV,CA,Fresno,CISO,IPP Non-CHP,WS526,20,20,20,Solar Photovoltaic,(OP) Operating,36.381775,-120.1345
19361,60618,"Lindberg Field Solar 2, LLC",60984,Lindberg Field Solar 2,CA,San Diego,CISO,IPP Non-CHP,PV1,1.9,1.9,1.9,Solar Photovoltaic,(OP) Operating,32.729444,-117.2051
19371,16609,San Diego Gas & Electric Co,60995,Ramona Solar Energy,CA,San Diego,CISO,Electric Utility,1,4.3,3.7,3.6,Solar Photovoltaic,(OP) Operating,33.018486,-116.8607
19386,60648,"SCDA Solar 1, LLC",61006,SCDA Solar 1,CA,Sacramento,CISO,IPP Non-CHP,SCAIR,7,7,7,Solar Photovoltaic,(OP) Operating,38.690186,-121.5865
19400,61012,AES Distributed Energy,61013,Marin Clean Energy Solar One,CA,Contra Costa,CISO,IPP Non-CHP,MCES1,10.5,10.5,10.5,Solar Photovoltaic,(OP) Operating,37.945296,-122.3772
19487,61012,AES Distributed Energy,61115,Manteca Land PV,CA,San Joaquin,CISO,IPP Non-CHP,MANT1,1,1,1,Solar Photovoltaic,(OP) Operating,37.84013,-121.2162
19488,61012,AES Distributed Energy,61116,Delano Land 1,CA,Kern,CISO,IPP Non-CHP,DELA1,1,1,1,Solar Photovoltaic,(OP) Operating,35.761217,-119.3444
19489,61012,AES Distributed Energy,61117,Bakersfield PV 1,CA,Kern,CISO,IPP Non-CHP,BAKE1,5.3,5.3,5.3,Solar Photovoltaic,(OP) Operating,35.324982,-118.9815
19490,61012,AES Distributed Energy,61118,Bakersfield Industrial PV 1,CA,Kern,CISO,IPP Non-CHP,BIND1,1,1,1,Solar Photovoltaic,(OP) Operating,35.330032,-118.9931
19519,57313,Tesla Inc.,61152,Intel Folsom Phase 3,CA,Sacramento,BANC,IPP Non-CHP,PV1,5.2,5.2,5.2,Solar Photovoltaic,(OP) Operating,38.645961,-121.1626
